{
  "data":[
    {
      "name": "62001 JOSE CUPERTINO GOMERO COTILLO",
      "address": "AVENIDA JAUREGUI 616",
      "latitude": -5.896485,
      "longitude": -76.11077,
      "ubigeo": 160201
    },
    {
      "name": "MONS. ATANASIO JAUREGUI GOIRI",
      "address": "AVENIDA ALFONSO UGARTE CUADRA 9",
      "latitude": -5.8926,
      "longitude": -76.11517,
      "ubigeo": 160201
    },
    {
      "name": "INDUSTRIAL 029",
      "address": "AVENIDA ALFONSO UGARTE 916",
      "latitude": -5.892787,
      "longitude": -76.113573,
      "ubigeo": 160201
    },
    {
      "name": "62013 VICTOR MANUEL SIFUENTES MESI",
      "address": "CARRETERA YURIMAGUAS-TARAPOTO KM.46",
      "latitude": -6.107622,
      "longitude": -76.269665,
      "ubigeo": 160201
    },
    {
      "name": "MONS. ATANASIO JAUREGUI GOIRI",
      "address": "AVENIDA ALFONSO UGARTE CUADRA 9",
      "latitude": -5.8926,
      "longitude": -76.11517,
      "ubigeo": 160201
    },
    {
      "name": "62172 JORGE A. VASQUEZ REATEGUI",
      "address": "CALLE JULIO C ARANA 500",
      "latitude": -5.8997,
      "longitude": -76.1044,
      "ubigeo": 160201
    },
    {
      "name": "62172 JORGE ALFONSO VASQUEZ REATEGUI",
      "address": "CALLE JULIO C ARANA 500",
      "latitude": -5.8997,
      "longitude": -76.1044,
      "ubigeo": 160201
    },
    {
      "name": "PEDRO DEL CASTILLO RIOS",
      "address": "CALLE JOSE RIERA 103",
      "latitude": -5.895857,
      "longitude": -76.106934,
      "ubigeo": 160201
    },
    {
      "name": "AMALIA DEL AGUILA VELASQUEZ",
      "address": "CALLE AVIACION S\/N",
      "latitude": -5.8896,
      "longitude": -76.1234,
      "ubigeo": 160201
    },
    {
      "name": "62007 JOSE MARIA ARGUEDAS",
      "address": "LA CARRETERA",
      "latitude": -5.9022,
      "longitude": -76.1099,
      "ubigeo": 160201
    },
    {
      "name": "MATILDE TUNJAR GUZMAN DE VELA",
      "address": "CALLE LIBERTAD 621",
      "latitude": -5.8948,
      "longitude": -76.1168,
      "ubigeo": 160201
    },
    {
      "name": "62007 JOSE MARIA ARGUEDAS",
      "address": "LA CARRETERA",
      "latitude": -5.9022,
      "longitude": -76.1099,
      "ubigeo": 160201
    },
    {
      "name": "BALSAPUERTO",
      "address": "RIO CACHIYACU",
      "latitude": -5.83179,
      "longitude": -76.5607,
      "ubigeo": 160202
    },
    {
      "name": "AGROPECUARIO 110",
      "address": "AVENIDA LAS AMERICAS 5TA CUADRA",
      "latitude": -5.89864,
      "longitude": -76.11593,
      "ubigeo": 160201
    },
    {
      "name": "62009 MARCELINA LOPEZ ROJAS",
      "address": "AVENIDA LIBERTAD 523",
      "latitude": -5.89533,
      "longitude": -76.11506,
      "ubigeo": 160201
    },
    {
      "name": "ESCUELA ARBOL",
      "address": "ESQUINA CALLE CAPIRONA Y CUMALA S\/N MZ G LOTE 01",
      "latitude": -5.88378,
      "longitude": -76.12288,
      "ubigeo": 160201
    },
    {
      "name": "62009 MARCELINA LOPEZ ROJAS",
      "address": "AVENIDA LIBERTAD 523",
      "latitude": -5.89533,
      "longitude": -76.11506,
      "ubigeo": 160201
    },
    {
      "name": "MATILDE TUNJAR GUZMAN DE VELA",
      "address": "CALLE LIBERTAD 621",
      "latitude": -5.8948,
      "longitude": -76.1168,
      "ubigeo": 160201
    },
    {
      "name": "AMALIA DEL AGUILA VELASQUEZ",
      "address": "CALLE AVIACION S\/N",
      "latitude": -5.8896,
      "longitude": -76.1234,
      "ubigeo": 160201
    },
    {
      "name": "62010 VIRGEN DE FATIMA",
      "address": "CALLE ANGAMOS 403",
      "latitude": -5.893429,
      "longitude": -76.110165,
      "ubigeo": 160201
    },
    {
      "name": "NUESTRA SEÑORA DE GUADALUPE",
      "address": "CARRETERA HAYA DE LA TORRE S\/N",
      "latitude": -6.112745,
      "longitude": -76.270199,
      "ubigeo": 160201
    },
    {
      "name": "ESCUELA ARBOL",
      "address": "ESQUINA CALLE CAPIRONA Y CUMALA S\/N MZ G LOTE 01",
      "latitude": -5.88378,
      "longitude": -76.12288,
      "ubigeo": 160201
    },
    {
      "name": "AGROPECUARIO 110",
      "address": "AVENIDA LAS AMERICAS 5TA CUADRA",
      "latitude": -5.89864,
      "longitude": -76.11593,
      "ubigeo": 160201
    },
    {
      "name": "VIRGEN DE LOS DOLORES",
      "address": "CALLE ARICA KM 4",
      "latitude": -5.90917,
      "longitude": -76.11729,
      "ubigeo": 160201
    },
    {
      "name": "VIRGEN DE LOS DOLORES",
      "address": "CALLE ARICA KM 4",
      "latitude": -5.90917,
      "longitude": -76.11729,
      "ubigeo": 160201
    },
    {
      "name": "MISIONAL GORETTI",
      "address": "CALLE DANIEL ALCIDES CARRIO 271",
      "latitude": -5.227852,
      "longitude": -75.679905,
      "ubigeo": 160206
    },
    {
      "name": "MISIONAL GORETTI",
      "address": "AVENIDA AMAZONAS S\/N",
      "latitude": -5.233088,
      "longitude": -75.678223,
      "ubigeo": 160206
    },
    {
      "name": "PEDRO DEL CASTILLO RIOS",
      "address": "CALLE JOSE RIERA 103",
      "latitude": -5.895857,
      "longitude": -76.106934,
      "ubigeo": 160201
    },
    {
      "name": 160205,
      "address": "CALLE PASTAZA S\/N",
      "latitude": -5.293017,
      "longitude": -76.280407,
      "ubigeo": 160205
    },
    {
      "name": "62586 MARIA INMACULADA",
      "address": "BUENA VISTA",
      "latitude": -5.8891,
      "longitude": -76.1266,
      "ubigeo": 160201
    },
    {
      "name": "62011",
      "address": "CARRETERA YURIMAGUAS - MUNICHIS",
      "latitude": -5.893996,
      "longitude": -76.230332,
      "ubigeo": 160201
    },
    {
      "name": "PADRE JUAN LORENZO LUCERO",
      "address": "CALLE LAGUNAS 1230",
      "latitude": -5.22897,
      "longitude": -75.674946,
      "ubigeo": 160206
    },
    {
      "name": "62174 JUAN JULIAN PRIMO RUIZ",
      "address": "CALLE COMERCIO 928",
      "latitude": -5.9032,
      "longitude": -76.1013,
      "ubigeo": 160201
    },
    {
      "name": "62174 RVDO. PADRE JUAN JULIAN PRIMO RUIZ",
      "address": "CALLE COMERCIO 928",
      "latitude": -5.9032,
      "longitude": -76.1013,
      "ubigeo": 160201
    },
    {
      "name": "62006 JOSE DAMASO RAMOS BOSMEDIANO",
      "address": "CALLE ANGAMOS 425",
      "latitude": -5.892852,
      "longitude": -76.110268,
      "ubigeo": 160201
    },
    {
      "name": "62028 VIRGEN DE FATIMA",
      "address": "RIO HUALLAGA",
      "latitude": -6.024182,
      "longitude": -75.872375,
      "ubigeo": 160211
    },
    {
      "name": "PADRE JUAN LORENZO LUCERO",
      "address": "CALLE LAGUNAS 1230",
      "latitude": -5.22897,
      "longitude": -75.674946,
      "ubigeo": 160206
    },
    {
      "name": "MUNICHIS",
      "address": "AVENIDA ASCENCIO RIVERA CASTILLO S\/N",
      "latitude": -5.89528,
      "longitude": -76.22765,
      "ubigeo": 160201
    },
    {
      "name": "SAN PABLO APOSTOL",
      "address": "RIO PARANAPURA",
      "latitude": -5.70932,
      "longitude": -76.41506,
      "ubigeo": 160202
    },
    {
      "name": "62500 PUEBLO JOVEN 82",
      "address": "PUEBLO JOVEN 82",
      "latitude": -5.904552,
      "longitude": -76.113622,
      "ubigeo": 160201
    },
    {
      "name": "62017",
      "address": "CALLE DANIEL ALCIDES CARRION 324",
      "latitude": -5.227411,
      "longitude": -75.67921,
      "ubigeo": 160206
    },
    {
      "name": "62005",
      "address": "CALLE MAYNAS 501",
      "latitude": -5.88692,
      "longitude": -76.1129,
      "ubigeo": 160201
    },
    {
      "name": "CESAR ABRAHAM VALLEJO MENDOZA",
      "address": "RIO YANAYACU",
      "latitude": -5.666975,
      "longitude": -76.625724,
      "ubigeo": 160202
    },
    {
      "name": "62021",
      "address": "CALLE ESQUINA BOLIVAR\/IGLESIAS",
      "latitude": -5.291741,
      "longitude": -76.283651,
      "ubigeo": 160205
    },
    {
      "name": "SHUCUSHYACU",
      "address": "RIO HUALLAGA",
      "latitude": -6.024113,
      "longitude": -75.873312,
      "ubigeo": 160211
    },
    {
      "name": "CESAR CALVO DE ARAUJO",
      "address": "RIO PARANAPURA",
      "latitude": -5.888555,
      "longitude": -76.28206,
      "ubigeo": 160201
    },
    {
      "name": "62586 MARIA INMACULADA",
      "address": "BUENA VISTA",
      "latitude": -5.8891,
      "longitude": -76.1266,
      "ubigeo": 160201
    },
    {
      "name": "62022",
      "address": "CALLE PROGRESO 207",
      "latitude": -5.292165,
      "longitude": -76.281788,
      "ubigeo": 160205
    },
    {
      "name": "SAN PABLO APOSTOL",
      "address": "RIO PARANAPURA",
      "latitude": -5.712532,
      "longitude": -76.411742,
      "ubigeo": 160202
    },
    {
      "name": "PANAN",
      "address": "RIO PARANAPURA",
      "latitude": -5.647305,
      "longitude": -76.528945,
      "ubigeo": 160202
    },
    {
      "name": "NUEVA VIDA",
      "address": "RIO PARANAPURA",
      "latitude": -5.492557,
      "longitude": -76.762887,
      "ubigeo": 160202
    },
    {
      "name": "62017",
      "address": "CALLE DANIEL ALCIDES CARRION 324",
      "latitude": -5.227411,
      "longitude": -75.67921,
      "ubigeo": 160206
    },
    {
      "name": "GRAU",
      "address": "CARRETERA YURIMAGUAS - TARAPOTO KM.40",
      "latitude": -6.07038,
      "longitude": -76.24451,
      "ubigeo": 160201
    },
    {
      "name": "62027",
      "address": "CALLE ALCIDES CARRION",
      "latitude": -5.8337,
      "longitude": -76.5603,
      "ubigeo": 160202
    },
    {
      "name": "TECNICO INDUSTRIAL AGROPECUARIO KUMPANAMA",
      "address": "QUEBRADA ARMANAYACU S\/N",
      "latitude": -5.89856,
      "longitude": -76.39997,
      "ubigeo": 160202
    },
    {
      "name": "YONAN",
      "address": "RIO HUALLAGA",
      "latitude": -5.152356,
      "longitude": -75.610897,
      "ubigeo": 160206
    },
    {
      "name": "SANTA MARIA",
      "address": "RIO HUALLAGA",
      "latitude": -5.79659,
      "longitude": -76.09275,
      "ubigeo": 160201
    },
    {
      "name": "LIBERTAD",
      "address": "LIBERTAD",
      "latitude": -5.55467,
      "longitude": -76.69537,
      "ubigeo": 160202
    },
    {
      "name": "NUEVA VIDA",
      "address": "RIO PARANAPUA",
      "latitude": -5.488017,
      "longitude": -76.768007,
      "ubigeo": 160202
    },
    {
      "name": "62073",
      "address": "RIO MARAÑON",
      "latitude": -5.035378,
      "longitude": -75.667767,
      "ubigeo": 160206
    },
    {
      "name": "62588",
      "address": "CALLE 23 DE JUNIO MZ 25 LOTE B SECTOR SEÑOR DE LOS MILAGROS",
      "latitude": -5.908968,
      "longitude": -76.107032,
      "ubigeo": 160201
    },
    {
      "name": "PUERTO PORVENIR",
      "address": "PUERTO PORVENIR",
      "latitude": -5.95221,
      "longitude": -76.49679,
      "ubigeo": 160202
    },
    {
      "name": "62400",
      "address": "RIO PARANAPURA",
      "latitude": -5.6475,
      "longitude": -76.5352,
      "ubigeo": 160202
    },
    {
      "name": "62047",
      "address": "CARRETERA YURIMAGUAS - TARAPOTO KM.40",
      "latitude": -6.06916,
      "longitude": -76.246082,
      "ubigeo": 160201
    },
    {
      "name": "CESAR ABRAHAM VALLEJO",
      "address": "QUEBRADA YANAYACU",
      "latitude": -5.669603,
      "longitude": -76.623877,
      "ubigeo": 160202
    },
    {
      "name": "ARAHUANTE",
      "address": "RIO HUALLAGA",
      "latitude": -5.30584,
      "longitude": -75.72128,
      "ubigeo": 160206
    },
    {
      "name": "ARAHUANTE",
      "address": "RIO HUALLAGA",
      "latitude": -5.31089,
      "longitude": -75.726868,
      "ubigeo": 160206
    },
    {
      "name": "JUAN DANIEL DEL AGUILA VELASQUEZ",
      "address": "RIO AYPENA",
      "latitude": -5.304381,
      "longitude": -76.465457,
      "ubigeo": 160205
    },
    {
      "name": "ESCUELA MODELO EN LA AMAZONIA",
      "address": "CARRETERA YRIMAGUAS - MUNICHIS S\/N",
      "latitude": -5.898217,
      "longitude": -76.13214,
      "ubigeo": 160201
    },
    {
      "name": "62306",
      "address": "RIO PARANAPURA",
      "latitude": -5.554392,
      "longitude": -76.695814,
      "ubigeo": 160202
    },
    {
      "name": "PUCALLPILLO",
      "address": "PUCALLPILLO",
      "latitude": -5.59397,
      "longitude": -76.64831,
      "ubigeo": 160202
    },
    {
      "name": "62027",
      "address": "CALLE ALCIDES CARRION",
      "latitude": -5.8337,
      "longitude": -76.5603,
      "ubigeo": 160202
    },
    {
      "name": 160210,
      "address": "RIO HUALLAGA",
      "latitude": -5.5155,
      "longitude": -75.8587,
      "ubigeo": 160210
    },
    {
      "name": "SANTO TOMAS",
      "address": "CARRETERA YURIMAGUAS - TARAPOTO KM.30",
      "latitude": -5.999988,
      "longitude": -76.244668,
      "ubigeo": 160201
    },
    {
      "name": "62023",
      "address": "CALLE QUEBRADA ARMANAYACU",
      "latitude": -5.5174,
      "longitude": -75.8603,
      "ubigeo": 160210
    },
    {
      "name": "SANTO TOMAS",
      "address": "CARRETERA YURIMAGUAS - TARAPOTO KM.30",
      "latitude": -5.999988,
      "longitude": -76.244668,
      "ubigeo": 160201
    },
    {
      "name": "62229",
      "address": "RIO PARANAPURA",
      "latitude": -5.715012,
      "longitude": -76.658418,
      "ubigeo": 160202
    },
    {
      "name": "JUAN PRIMO RUIZ",
      "address": "CARRETERA YURIMAGUAS - TARAPOTO KM. 35",
      "latitude": -6.033339,
      "longitude": -76.256493,
      "ubigeo": 160201
    },
    {
      "name": "62004 OLGA MANUELA DEL AGUILA ANGULO",
      "address": "CALLE MARISCAL CASTILLA 417",
      "latitude": -5.89238,
      "longitude": -76.105448,
      "ubigeo": 160201
    },
    {
      "name": "62376",
      "address": "RIO CACHIYACU",
      "latitude": -5.865779,
      "longitude": -76.571413,
      "ubigeo": 160202
    },
    {
      "name": "62019",
      "address": "CALLE FITZCARRALD 806",
      "latitude": -5.224893,
      "longitude": -75.675881,
      "ubigeo": 160206
    },
    {
      "name": "62012 SANTA ROSA DE LIMA",
      "address": "RIO HUALLAGA",
      "latitude": -5.796292,
      "longitude": -76.093933,
      "ubigeo": 160201
    },
    {
      "name": "62015",
      "address": "JIRON PABLO INGA 404",
      "latitude": -5.22341,
      "longitude": -75.66818,
      "ubigeo": 160206
    },
    {
      "name": "MANCO CAPAC",
      "address": "FRAY MARTIN",
      "latitude": -5.773618,
      "longitude": -76.390157,
      "ubigeo": 160202
    },
    {
      "name": "60340 - NUEVE NAZARETH",
      "address": "RIO YAVARI - LAGO CURURU",
      "latitude": -4.133978,
      "longitude": -70.468201,
      "ubigeo": 160403
    },
    {
      "name": "CENTRO AMERICA",
      "address": "RIO PARANAPURA",
      "latitude": -5.78987,
      "longitude": -76.350122,
      "ubigeo": 160202
    },
    {
      "name": "62587 JOSE DE SAN MARTIN MATORRAS",
      "address": "INDEPENDENCIA",
      "latitude": -5.897612,
      "longitude": -76.120335,
      "ubigeo": 160201
    },
    {
      "name": "PROGRESO",
      "address": "QUEBRADA YANAYACU",
      "latitude": -5.649859,
      "longitude": -76.548765,
      "ubigeo": 160202
    },
    {
      "name": "62423",
      "address": "RIO CACHIYACU",
      "latitude": -5.7953,
      "longitude": -76.5436,
      "ubigeo": 160202
    },
    {
      "name": "62328 JUAN DANIEL DEL AGUILA VELASQUEZ",
      "address": "RIO AYPENA",
      "latitude": -5.304381,
      "longitude": -76.465457,
      "ubigeo": 160205
    },
    {
      "name": "62231",
      "address": "RIO PARANAPURA",
      "latitude": -5.7503,
      "longitude": -76.40014,
      "ubigeo": 160202
    },
    {
      "name": "CESAR CALVO DE ARAUJO",
      "address": "RIO PARANAPURA",
      "latitude": -5.888555,
      "longitude": -76.28206,
      "ubigeo": 160201
    },
    {
      "name": "62263",
      "address": "RIO PARANAPURA",
      "latitude": -5.572072,
      "longitude": -76.673616,
      "ubigeo": 160202
    },
    {
      "name": "CUIPARI",
      "address": "RIO HUALLAGA-LAGO CUIPARI",
      "latitude": -5.953824,
      "longitude": -75.964004,
      "ubigeo": 160211
    },
    {
      "name": "62416",
      "address": "RIO PARANAPURA",
      "latitude": -5.591341,
      "longitude": -76.649636,
      "ubigeo": 160202
    },
    {
      "name": "SAN ANTONIO DE JEBERILLOS",
      "address": "QUEBRADA ZAPOTE",
      "latitude": -5.723407,
      "longitude": -76.255297,
      "ubigeo": 160201
    },
    {
      "name": "PROVIDENCIA",
      "address": "RIO HUALLAGA",
      "latitude": -5.724913,
      "longitude": -76.010714,
      "ubigeo": 160201
    },
    {
      "name": "62345",
      "address": "QUEBRADA SUPAYACU",
      "latitude": -5.335163,
      "longitude": -76.530403,
      "ubigeo": 160205
    },
    {
      "name": "62229",
      "address": "RIO YANAYACU",
      "latitude": -5.715414,
      "longitude": -76.660241,
      "ubigeo": 160202
    },
    {
      "name": "PROGRESO",
      "address": "QUEBRADA YANAYACU",
      "latitude": -5.649859,
      "longitude": -76.548765,
      "ubigeo": 160202
    },
    {
      "name": "JUAN ESPIRITU SALINAS ACHO",
      "address": "RIO HUALLAGA-LAGO CUIPARI",
      "latitude": -5.951616,
      "longitude": -75.965181,
      "ubigeo": 160211
    },
    {
      "name": "62377",
      "address": "QUEBRADA ARMANAYACU",
      "latitude": -5.911528,
      "longitude": -76.428079,
      "ubigeo": 160202
    },
    {
      "name": "62138",
      "address": "RIO CACHIYACU",
      "latitude": -5.749336,
      "longitude": -76.479284,
      "ubigeo": 160202
    },
    {
      "name": "62181",
      "address": "RIO ARMANAYACU",
      "latitude": -5.89721,
      "longitude": -76.400183,
      "ubigeo": 160202
    },
    {
      "name": "SAN ANTONIO DE JEBERILLOS",
      "address": "QUEBRADA ZAPOTE",
      "latitude": -5.723407,
      "longitude": -76.255297,
      "ubigeo": 160201
    },
    {
      "name": "MANCO CAPAC",
      "address": "RIO PARANAPURA S\/N",
      "latitude": -5.77339,
      "longitude": -76.38992,
      "ubigeo": 160202
    },
    {
      "name": "62480",
      "address": "RIO YANAYACU",
      "latitude": -6.137069,
      "longitude": -75.713426,
      "ubigeo": 160211
    },
    {
      "name": "NUEVA ESPERANZA",
      "address": "NUEVA ESPERANZA",
      "latitude": -5.7497,
      "longitude": -76.47968,
      "ubigeo": 160202
    },
    {
      "name": "62259",
      "address": "RIO MARAÑON",
      "latitude": -4.925062,
      "longitude": -75.49813,
      "ubigeo": 160206
    },
    {
      "name": "PROVIDENCIA",
      "address": "RIO HUALLAGA",
      "latitude": -5.725561,
      "longitude": -76.010714,
      "ubigeo": 160201
    },
    {
      "name": "PUERTO PERU",
      "address": "RIO SHANUS - QUEBRADA YANAYACU",
      "latitude": -6.046652,
      "longitude": -76.177012,
      "ubigeo": 160201
    },
    {
      "name": "62480",
      "address": "RIO YANAYACU",
      "latitude": -6.137069,
      "longitude": -75.713426,
      "ubigeo": 160211
    },
    {
      "name": "62264",
      "address": "RIO ARMANAYACU",
      "latitude": -5.949275,
      "longitude": -76.495524,
      "ubigeo": 160202
    },
    {
      "name": "ANTIOQUIA",
      "address": "QUEBRADA PANAN",
      "latitude": -5.481614,
      "longitude": -76.524177,
      "ubigeo": 160202
    },
    {
      "name": "62374",
      "address": "RIO CACHIYACU",
      "latitude": -5.802714,
      "longitude": -76.528627,
      "ubigeo": 160202
    },
    {
      "name": "62395",
      "address": "RIO ARMANAYACU",
      "latitude": -5.875329,
      "longitude": -76.357037,
      "ubigeo": 160202
    },
    {
      "name": "62453",
      "address": "RIO PARANAPURA",
      "latitude": -5.484596,
      "longitude": -76.773286,
      "ubigeo": 160202
    },
    {
      "name": "VALLE DEL ZAPOTE",
      "address": "RIO HUALLAGA-QUEBRADA ZAPOTE",
      "latitude": -5.746363,
      "longitude": -76.189009,
      "ubigeo": 160201
    },
    {
      "name": "NICOLAS PEREZ PAREDES",
      "address": "QUEBRADA CUIPARILLO",
      "latitude": -5.925771,
      "longitude": -75.997955,
      "ubigeo": 160211
    },
    {
      "name": "62448",
      "address": "QEBRADA YANAYACU",
      "latitude": -6.01885,
      "longitude": -76.33371,
      "ubigeo": 160201
    },
    {
      "name": "VALLE DEL ZAPOTE",
      "address": "RIO HUALLAGA-QUEBRADA ZAPOTE",
      "latitude": -5.745126,
      "longitude": -76.188322,
      "ubigeo": 160201
    },
    {
      "name": "HUANCAYO",
      "address": "RIO NUCURAY",
      "latitude": -4.657687,
      "longitude": -75.955939,
      "ubigeo": 160206
    },
    {
      "name": "TUPAC AMARU",
      "address": "RIO SHANUSI",
      "latitude": -5.969384,
      "longitude": -76.111649,
      "ubigeo": 160201
    },
    {
      "name": "62195",
      "address": "RIO CACHIYACU",
      "latitude": -5.72588,
      "longitude": -76.43801,
      "ubigeo": 160202
    },
    {
      "name": "62785",
      "address": "RIO CACHIYACU",
      "latitude": -5.765154,
      "longitude": -76.514889,
      "ubigeo": 160202
    },
    {
      "name": "62786",
      "address": "QUEBRADA VARADERO",
      "latitude": -5.623403,
      "longitude": -76.43876,
      "ubigeo": 160202
    },
    {
      "name": "62789",
      "address": "RIO CACHIYACU",
      "latitude": -5.840985,
      "longitude": -76.541913,
      "ubigeo": 160202
    },
    {
      "name": "62793",
      "address": "CARRETERA ARICA - BALSAPUERTO",
      "latitude": -5.821876,
      "longitude": -76.527139,
      "ubigeo": 160202
    },
    {
      "name": "62796",
      "address": "QUEBRADA PILLINGUE",
      "latitude": -5.75006,
      "longitude": -76.572904,
      "ubigeo": 160202
    },
    {
      "name": "BONIFACIO SALDAÑA RODRIGUEZ",
      "address": "RIO HUALLAGA-QUEBRADA CUIPARILLO",
      "latitude": -5.890681,
      "longitude": -75.951381,
      "ubigeo": 160211
    },
    {
      "name": "PUERTO PERU",
      "address": "RIO SHANUSI",
      "latitude": -6.048686,
      "longitude": -76.177163,
      "ubigeo": 160201
    },
    {
      "name": "CENTRO AMERICA",
      "address": "RIO PARANAPURA",
      "latitude": -5.789443,
      "longitude": -76.35246,
      "ubigeo": 160202
    },
    {
      "name": "62116",
      "address": "CARRETERA YURIMAGUAS - TARAPOTO KM.35",
      "latitude": -6.0437,
      "longitude": -76.2571,
      "ubigeo": 160201
    },
    {
      "name": "NUEVO MUNDO",
      "address": "RIO PAVAYACU",
      "latitude": -4.805484,
      "longitude": -76.012074,
      "ubigeo": 160206
    },
    {
      "name": "62802",
      "address": "QUEBRADA URUBICO",
      "latitude": -5.835148,
      "longitude": -76.56278,
      "ubigeo": 160202
    },
    {
      "name": "62179 SAN ANTONIO DE PARINARI",
      "address": "RIO HUALLAGA - QUEBRADA YANAYACU",
      "latitude": -6.091795,
      "longitude": -75.808868,
      "ubigeo": 160211
    },
    {
      "name": "JOSE OBLITAS HIDALGO",
      "address": "QUEBRADA SHISHINAHUA",
      "latitude": -5.711121,
      "longitude": -75.84682,
      "ubigeo": 160210
    },
    {
      "name": "62345",
      "address": "QUEBRADA SUPAYACU",
      "latitude": -5.335163,
      "longitude": -76.530403,
      "ubigeo": 160205
    },
    {
      "name": "62760",
      "address": "RIO CACHIYACU",
      "latitude": -5.832568,
      "longitude": -76.458893,
      "ubigeo": 160202
    },
    {
      "name": "62423",
      "address": "RIO CACHIYACU",
      "latitude": -5.7953,
      "longitude": -76.5436,
      "ubigeo": 160202
    },
    {
      "name": "62377",
      "address": "QUEBRADA ARMANAYACU",
      "latitude": -5.911528,
      "longitude": -76.428079,
      "ubigeo": 160202
    },
    {
      "name": "YURIMAGUAS DEL SAGRADO CORAZON DE JESUS",
      "address": "CALLE ALFONSO UGARTE 328",
      "latitude": -5.89316,
      "longitude": -76.10735,
      "ubigeo": 160201
    },
    {
      "name": "ANTIOQUIA",
      "address": "ANTIOQUÍA",
      "latitude": -5.481274,
      "longitude": -76.523667,
      "ubigeo": 160202
    },
    {
      "name": "62262",
      "address": "RIO NUCURAY",
      "latitude": -4.128332,
      "longitude": -76.206697,
      "ubigeo": 160206
    },
    {
      "name": "REYNO UNIDO",
      "address": "QUEBRADA YANAYACU",
      "latitude": -5.675275,
      "longitude": -76.637778,
      "ubigeo": 160202
    },
    {
      "name": "62432",
      "address": "RIO CACHIYACU",
      "latitude": -5.837025,
      "longitude": -76.546898,
      "ubigeo": 160202
    },
    {
      "name": "YURIMAGUAS DEL SAGRADO CORAZON DE JESUS",
      "address": "CALLE ALFONSO UGARTE 328",
      "latitude": -5.89316,
      "longitude": -76.10735,
      "ubigeo": 160201
    },
    {
      "name": "62297",
      "address": "QUEBRADA PAMPAYACU",
      "latitude": -6.05467,
      "longitude": -76.45369,
      "ubigeo": 160201
    },
    {
      "name": "62495 EDWIN PINEDO ESCUDERO",
      "address": "CARRETERA YURIMAGUAS - TARAPOTO KM.34",
      "latitude": -6.029442,
      "longitude": -76.25346,
      "ubigeo": 160201
    },
    {
      "name": "62014",
      "address": "JIRON PADRE JUAN LORENZO LUCERO 499",
      "latitude": -5.23436,
      "longitude": -75.68062,
      "ubigeo": 160206
    },
    {
      "name": "62056",
      "address": "CALLE JOSE MURAYARI 230",
      "latitude": -5.238195,
      "longitude": -75.682842,
      "ubigeo": 160206
    },
    {
      "name": "NICOLAS PEREZ PAREDES",
      "address": "QUEBRADA CUIPARILLO",
      "latitude": -5.925771,
      "longitude": -75.997955,
      "ubigeo": 160211
    },
    {
      "name": "62334",
      "address": "RIO ARMANAYACU",
      "latitude": -5.991984,
      "longitude": -76.468565,
      "ubigeo": 160202
    },
    {
      "name": "62465",
      "address": "RIO ARMANAYACU",
      "latitude": -5.969682,
      "longitude": -76.468155,
      "ubigeo": 160202
    },
    {
      "name": "JOSE MANUEL ALEGRIA GUERRA",
      "address": "RIO HUALLAGA - LAGO ACHUAL TIPISHCA",
      "latitude": -5.455214,
      "longitude": -75.814792,
      "ubigeo": 160206
    },
    {
      "name": "62585",
      "address": "RIO PARANAPURA",
      "latitude": -5.680695,
      "longitude": -76.66622,
      "ubigeo": 160202
    },
    {
      "name": "LINO CURITIMA CARITIMARI",
      "address": "RIO HUALLAGA",
      "latitude": -5.3165,
      "longitude": -75.8177,
      "ubigeo": 160206
    },
    {
      "name": "NUEVO TRIUNFO",
      "address": "QUEBRADA SHISHINAHUA S\/N",
      "latitude": -5.72207,
      "longitude": -75.70433,
      "ubigeo": 160210
    },
    {
      "name": "REYNO UNIDO",
      "address": "QUEBRADA YANAYACU",
      "latitude": -5.675275,
      "longitude": -76.637778,
      "ubigeo": 160202
    },
    {
      "name": "BALSA YACU",
      "address": "RIO PARANAPURA",
      "latitude": -5.857417,
      "longitude": -76.295242,
      "ubigeo": 160201
    },
    {
      "name": "JOSE OBLITAS HIDALGO",
      "address": "QUEBRADA SHISHINAHUA",
      "latitude": -5.711532,
      "longitude": -75.847539,
      "ubigeo": 160210
    },
    {
      "name": "62496",
      "address": "RIO HUALLAGA",
      "latitude": -5.833885,
      "longitude": -75.967375,
      "ubigeo": 160201
    },
    {
      "name": "62299",
      "address": "RIO SHANUSI",
      "latitude": -5.975147,
      "longitude": -76.138241,
      "ubigeo": 160201
    },
    {
      "name": "62791",
      "address": "RIO PARANAPURA",
      "latitude": -5.945233,
      "longitude": -76.491165,
      "ubigeo": 160202
    },
    {
      "name": "JOSE MANUEL ALEGRIA GUERRA",
      "address": "RIO HUALLAGA - LAGO ACHUAL TIPISHCA",
      "latitude": -5.452275,
      "longitude": -75.81611,
      "ubigeo": 160206
    },
    {
      "name": "BONIFACIO SALDAÑA RODRIGUEZ",
      "address": "RIO HUALLAGA-QUEBRADA CUIPARILLO",
      "latitude": -5.890681,
      "longitude": -75.951381,
      "ubigeo": 160211
    },
    {
      "name": "ESPERANZA",
      "address": "QUEBRADA YURACYACU",
      "latitude": -5.48468,
      "longitude": -75.830217,
      "ubigeo": 160210
    },
    {
      "name": "62262",
      "address": "RIO NUCURAY",
      "latitude": -4.128332,
      "longitude": -76.206697,
      "ubigeo": 160206
    },
    {
      "name": "62179 SAN ANTONIO DE PARINARI",
      "address": "RIO HUALLAGA-QUEBRADA YANAYACU",
      "latitude": -6.091144,
      "longitude": -75.808133,
      "ubigeo": 160211
    },
    {
      "name": "62404",
      "address": "RIO CACHIYACU",
      "latitude": -5.7374,
      "longitude": -76.47831,
      "ubigeo": 160202
    },
    {
      "name": "60264 - PALOMETA",
      "address": "RIO AMAZONAS",
      "latitude": -3.434277,
      "longitude": -71.953194,
      "ubigeo": 160402
    },
    {
      "name": "62420",
      "address": "RIO CACHIYACU",
      "latitude": -5.776,
      "longitude": -76.5175,
      "ubigeo": 160202
    },
    {
      "name": "62430",
      "address": "QUEBRADA YANAYACU",
      "latitude": -5.921115,
      "longitude": -76.320204,
      "ubigeo": 160201
    },
    {
      "name": "62499",
      "address": "RIO NUCURAY",
      "latitude": -4.945278,
      "longitude": -75.522673,
      "ubigeo": 160206
    },
    {
      "name": "62322",
      "address": "RIO CACHIYACU",
      "latitude": -5.853072,
      "longitude": -76.562135,
      "ubigeo": 160202
    },
    {
      "name": "62373",
      "address": "RIO SABALOYACU",
      "latitude": -5.627562,
      "longitude": -76.689982,
      "ubigeo": 160202
    },
    {
      "name": "60366 - SAN MARTIN DE PORRAS",
      "address": "RIO AMAZONAS",
      "latitude": -3.457748,
      "longitude": -72.073173,
      "ubigeo": 160402
    },
    {
      "name": "62375",
      "address": "QUEBRADA YANAYACU",
      "latitude": -5.711816,
      "longitude": -76.657679,
      "ubigeo": 160202
    },
    {
      "name": "62357",
      "address": "QUEBRADA SUPAYACU",
      "latitude": -5.330058,
      "longitude": -76.451329,
      "ubigeo": 160205
    },
    {
      "name": "NUEVO MUNDO",
      "address": "QUEBRADA PAVAYACU",
      "latitude": -4.806521,
      "longitude": -76.0111,
      "ubigeo": 160206
    },
    {
      "name": "62259",
      "address": "RIO MARAÑON",
      "latitude": -4.925062,
      "longitude": -75.49813,
      "ubigeo": 160206
    },
    {
      "name": "62136",
      "address": "RIO PARANAPURA",
      "latitude": -5.73249,
      "longitude": -76.39663,
      "ubigeo": 160202
    },
    {
      "name": "62291",
      "address": "RIO PALOMETAYACU",
      "latitude": -5.46792,
      "longitude": -76.633671,
      "ubigeo": 160202
    },
    {
      "name": "62298",
      "address": "QUEBRADA YANAYACU",
      "latitude": -5.931435,
      "longitude": -76.296101,
      "ubigeo": 160201
    },
    {
      "name": "62337",
      "address": "RIO PARANAPURA",
      "latitude": -5.527717,
      "longitude": -76.731965,
      "ubigeo": 160202
    },
    {
      "name": "62599",
      "address": "RIO HUALLAGA - QUEBRADA YURAC",
      "latitude": -6.080826,
      "longitude": -76.013092,
      "ubigeo": 160211
    },
    {
      "name": "62336",
      "address": "RIO HUALLAGA",
      "latitude": -5.87425,
      "longitude": -75.913746,
      "ubigeo": 160211
    },
    {
      "name": "62468",
      "address": "QUEBRADA ARMANAYACU",
      "latitude": -5.934251,
      "longitude": -76.452404,
      "ubigeo": 160202
    },
    {
      "name": "SAN JUAN DE ZAPOTE",
      "address": "RIO HUALLAGA-QUEBRADA ZAPOTE",
      "latitude": -5.75502,
      "longitude": -76.17923,
      "ubigeo": 160201
    },
    {
      "name": "62024",
      "address": "RIO HUALLAGA",
      "latitude": -5.614666,
      "longitude": -75.951411,
      "ubigeo": 160210
    },
    {
      "name": "62084",
      "address": "RIO PARANAPURA",
      "latitude": -5.773919,
      "longitude": -76.363976,
      "ubigeo": 160202
    },
    {
      "name": "62245",
      "address": "RIO NUCURAY",
      "latitude": -4.576149,
      "longitude": -76.011277,
      "ubigeo": 160206
    },
    {
      "name": "62496",
      "address": "RIO HUALLAGA",
      "latitude": -5.833885,
      "longitude": -75.967375,
      "ubigeo": 160201
    },
    {
      "name": "VICTOR MANUEL ORBE ANGULO",
      "address": "RIO HUALLAGA",
      "latitude": -5.615027,
      "longitude": -75.982539,
      "ubigeo": 160210
    },
    {
      "name": "62460",
      "address": "CARRETERA YURIMAGUAS - TARAPOTO KM. 38",
      "latitude": -6.04781,
      "longitude": -76.3282,
      "ubigeo": 160201
    },
    {
      "name": "62498",
      "address": "RIO CACHIYACU",
      "latitude": -5.73109,
      "longitude": -76.451439,
      "ubigeo": 160202
    },
    {
      "name": "62333",
      "address": "RIO HUALLAGA",
      "latitude": -5.758463,
      "longitude": -76.049376,
      "ubigeo": 160201
    },
    {
      "name": "62298",
      "address": "QUEBRADA YANAYACU",
      "latitude": -5.931435,
      "longitude": -76.296101,
      "ubigeo": 160201
    },
    {
      "name": "62068",
      "address": "RIO HUALLAGA",
      "latitude": -5.480127,
      "longitude": -75.886662,
      "ubigeo": 160210
    },
    {
      "name": "62333",
      "address": "RIO HUALLAGA",
      "latitude": -5.758463,
      "longitude": -76.049376,
      "ubigeo": 160201
    },
    {
      "name": "62499",
      "address": "RIO NUCURAY",
      "latitude": -4.945278,
      "longitude": -75.522673,
      "ubigeo": 160206
    },
    {
      "name": "62230",
      "address": "RIO PARANAPURA",
      "latitude": -5.665605,
      "longitude": -76.483256,
      "ubigeo": 160202
    },
    {
      "name": "62357",
      "address": "QUEBRADA SUPAYACU",
      "latitude": -5.330058,
      "longitude": -76.451329,
      "ubigeo": 160205
    },
    {
      "name": "62424",
      "address": "RIO CACHIYACU",
      "latitude": -5.8181,
      "longitude": -76.5437,
      "ubigeo": 160202
    },
    {
      "name": "62757",
      "address": "QUEBRADA YANAYACU",
      "latitude": -5.683596,
      "longitude": -76.618243,
      "ubigeo": 160202
    },
    {
      "name": "62231",
      "address": "RIO PARANAPURA",
      "latitude": -5.7503,
      "longitude": -76.40014,
      "ubigeo": 160202
    },
    {
      "name": "VICTOR MANUEL ORBE ANGULO",
      "address": "RIO HUALLAGA",
      "latitude": -5.615027,
      "longitude": -75.982539,
      "ubigeo": 160210
    },
    {
      "name": "ESPERANZA",
      "address": "QUEBRADA YURACYACU",
      "latitude": -5.48468,
      "longitude": -75.830217,
      "ubigeo": 160210
    },
    {
      "name": "62395",
      "address": "RIO ARMANAYACU",
      "latitude": -5.875329,
      "longitude": -76.357037,
      "ubigeo": 160202
    },
    {
      "name": "62088",
      "address": "RIO PASTAZA",
      "latitude": -4.709823,
      "longitude": -76.524432,
      "ubigeo": 160705
    },
    {
      "name": "62376",
      "address": "RIO CACHIYACU",
      "latitude": -5.865779,
      "longitude": -76.571413,
      "ubigeo": 160202
    },
    {
      "name": "62152",
      "address": "RIO HUALLAGA",
      "latitude": -5.854432,
      "longitude": -76.138221,
      "ubigeo": 160201
    },
    {
      "name": "62402",
      "address": "RIO PARANAPURA",
      "latitude": -5.69865,
      "longitude": -76.45278,
      "ubigeo": 160202
    },
    {
      "name": "62448",
      "address": "QEBRADA YANAYACU",
      "latitude": -6.01885,
      "longitude": -76.33371,
      "ubigeo": 160201
    },
    {
      "name": "PUCACURO",
      "address": "RIO MARAÑON",
      "latitude": -5.0472,
      "longitude": -75.5477,
      "ubigeo": 160206
    },
    {
      "name": "62425",
      "address": "RIO HUALLAGA",
      "latitude": -5.816989,
      "longitude": -76.209683,
      "ubigeo": 160201
    },
    {
      "name": "62082",
      "address": "RIO PARANAPURA",
      "latitude": -5.80782,
      "longitude": -76.35393,
      "ubigeo": 160202
    },
    {
      "name": "62053 SAN ISIDRO LABRADOR",
      "address": "CARRETERA YURIMAGUAS TARAPOTO KM 17",
      "latitude": -5.973173,
      "longitude": -76.181379,
      "ubigeo": 160201
    },
    {
      "name": "62451",
      "address": "RIO CACHIYACU",
      "latitude": -5.860806,
      "longitude": -76.548019,
      "ubigeo": 160202
    },
    {
      "name": "62346",
      "address": "RIO PARANAPURA",
      "latitude": -5.87018,
      "longitude": -76.22013,
      "ubigeo": 160201
    },
    {
      "name": "62392",
      "address": "RIO YANAYACU",
      "latitude": -5.697198,
      "longitude": -76.662099,
      "ubigeo": 160202
    },
    {
      "name": "62469",
      "address": "QUEBRADA YANAYACU",
      "latitude": -6.059956,
      "longitude": -75.848806,
      "ubigeo": 160211
    },
    {
      "name": "62792",
      "address": "CARRETERA ARICA - BALSAPUERTO",
      "latitude": -5.800378,
      "longitude": -76.474206,
      "ubigeo": 160202
    },
    {
      "name": "SANTA GEMA",
      "address": "RIO HUALLAGA-QUEBRADA YANAYAQUILLO",
      "latitude": -5.614739,
      "longitude": -75.910361,
      "ubigeo": 160210
    },
    {
      "name": "62036",
      "address": "RIO HUALLAGA",
      "latitude": -5.82762,
      "longitude": -76.12801,
      "ubigeo": 160201
    },
    {
      "name": "JOSE LUIS DEL AGUILA VELA",
      "address": "RIO SHANUSI",
      "latitude": -6.042096,
      "longitude": -76.157188,
      "ubigeo": 160201
    },
    {
      "name": "62129",
      "address": "RIO PASTAZA",
      "latitude": -4.817946,
      "longitude": -76.44323,
      "ubigeo": 160705
    },
    {
      "name": "62199",
      "address": "RIO PARANAPURA",
      "latitude": -5.849101,
      "longitude": -76.33422,
      "ubigeo": 160202
    },
    {
      "name": "62272",
      "address": "QUEBRADA SABALOYACU",
      "latitude": -5.621667,
      "longitude": -76.645258,
      "ubigeo": 160202
    },
    {
      "name": "SANTA ISABEL",
      "address": "RIO HUALLAGA",
      "latitude": -5.76556,
      "longitude": -76.1233,
      "ubigeo": 160201
    },
    {
      "name": "62372",
      "address": "RIO CACHIYACU",
      "latitude": -5.751998,
      "longitude": -76.504969,
      "ubigeo": 160202
    },
    {
      "name": "62476",
      "address": "RIO SHISHINAHUA",
      "latitude": -5.721785,
      "longitude": -75.704713,
      "ubigeo": 160210
    },
    {
      "name": "62358",
      "address": "QUEBRADA SUPAYACU",
      "latitude": -5.350862,
      "longitude": -76.563173,
      "ubigeo": 160205
    },
    {
      "name": "62577",
      "address": "QUEBRADA CACHIYACU",
      "latitude": -5.750619,
      "longitude": -76.495055,
      "ubigeo": 160202
    },
    {
      "name": "62199",
      "address": "RIO PARANAPURA",
      "latitude": -5.849101,
      "longitude": -76.33422,
      "ubigeo": 160202
    },
    {
      "name": "62149",
      "address": "RIO ARMANAYACU",
      "latitude": -5.88592,
      "longitude": -76.3813,
      "ubigeo": 160202
    },
    {
      "name": "62230",
      "address": "RIO PARANAPURA",
      "latitude": -5.665605,
      "longitude": -76.483256,
      "ubigeo": 160202
    },
    {
      "name": "MANGUAY",
      "address": "RIO PARANAPURA",
      "latitude": -5.87162,
      "longitude": -76.26319,
      "ubigeo": 160201
    },
    {
      "name": "HUANCAYO",
      "address": "RIO NUCURAY",
      "latitude": -4.656564,
      "longitude": -75.95737,
      "ubigeo": 160206
    },
    {
      "name": "62269",
      "address": "QUEBRADA ZAPOTE",
      "latitude": -5.738303,
      "longitude": -76.239948,
      "ubigeo": 160201
    },
    {
      "name": "62394",
      "address": "RIO HUALLAGA",
      "latitude": -6.071082,
      "longitude": -75.96232,
      "ubigeo": 160211
    },
    {
      "name": "62494",
      "address": "QUEBRADA YANAYACU",
      "latitude": -6.065242,
      "longitude": -76.374787,
      "ubigeo": 160201
    },
    {
      "name": "62576",
      "address": "RIO CACHIYACU",
      "latitude": -5.775,
      "longitude": -76.5334,
      "ubigeo": 160202
    },
    {
      "name": "TUPAC AMARU",
      "address": "RIO SHANUSI",
      "latitude": -5.969384,
      "longitude": -76.111649,
      "ubigeo": 160201
    },
    {
      "name": "SANTA GEMA",
      "address": "RIO HUALLAGA-QUEBRADA YANAYAQUILLO",
      "latitude": -5.614739,
      "longitude": -75.910361,
      "ubigeo": 160210
    },
    {
      "name": "62443",
      "address": "RIO SHISHINAHUA",
      "latitude": -5.721627,
      "longitude": -75.797314,
      "ubigeo": 160210
    },
    {
      "name": "62540",
      "address": "QUEBRADA PALOMETAYACU",
      "latitude": -5.435552,
      "longitude": -76.667673,
      "ubigeo": 160205
    },
    {
      "name": "62763",
      "address": "RIO YANAYACU",
      "latitude": -5.67749,
      "longitude": -76.60894,
      "ubigeo": 160202
    },
    {
      "name": "62765",
      "address": "QUEBRADA YURAC YACU",
      "latitude": -5.917527,
      "longitude": -76.452616,
      "ubigeo": 160202
    },
    {
      "name": "62131",
      "address": "RIO HUALLAGA",
      "latitude": -5.824188,
      "longitude": -76.190981,
      "ubigeo": 160201
    },
    {
      "name": "62406",
      "address": "RIO NUCURAY- QUEBRADA HUACAMAYO",
      "latitude": -4.473074,
      "longitude": -76.047341,
      "ubigeo": 160206
    },
    {
      "name": "62589",
      "address": "QUEBRADA ZAPOTE",
      "latitude": -5.70677,
      "longitude": -76.167472,
      "ubigeo": 160201
    },
    {
      "name": "62767",
      "address": "QUEBRADA LAGARTOYACU",
      "latitude": -5.809187,
      "longitude": -76.462132,
      "ubigeo": 160202
    },
    {
      "name": "62135",
      "address": "QUEBRADA SHISHINAGUA",
      "latitude": -5.673935,
      "longitude": -75.924688,
      "ubigeo": 160210
    },
    {
      "name": "62127",
      "address": "QUEBRADA SANIYACU",
      "latitude": -5.891954,
      "longitude": -76.320145,
      "ubigeo": 160201
    },
    {
      "name": "62575",
      "address": "QUEBRADA PILLINGUE",
      "latitude": -5.754021,
      "longitude": -76.522385,
      "ubigeo": 160202
    },
    {
      "name": "62580",
      "address": "RIO PARANAPURA",
      "latitude": -5.50832,
      "longitude": -76.75056,
      "ubigeo": 160202
    },
    {
      "name": "62418",
      "address": "QUEBRADA ARMANAYACU",
      "latitude": -5.884364,
      "longitude": -76.37001,
      "ubigeo": 160202
    },
    {
      "name": "62762",
      "address": "RIO CACHIYACU",
      "latitude": -5.7851,
      "longitude": -76.52947,
      "ubigeo": 160202
    },
    {
      "name": "62336",
      "address": "RIO HUALLAGA",
      "latitude": -5.87425,
      "longitude": -75.913746,
      "ubigeo": 160211
    },
    {
      "name": "JOSE DE SAN MARTIN",
      "address": "RIO HUALLAGA",
      "latitude": -5.854817,
      "longitude": -76.013639,
      "ubigeo": 160201
    },
    {
      "name": "62475",
      "address": "RIO HUALLAGA",
      "latitude": -5.790321,
      "longitude": -75.998576,
      "ubigeo": 160201
    },
    {
      "name": "62348",
      "address": "QUEBRADA SUPAYACU",
      "latitude": -5.2843,
      "longitude": -76.3845,
      "ubigeo": 160205
    },
    {
      "name": "62784",
      "address": "RIO CACHIYACU",
      "latitude": -5.810019,
      "longitude": -76.548002,
      "ubigeo": 160202
    },
    {
      "name": "62788",
      "address": "CALLE MARONA DEL ZAPOTE",
      "latitude": -5.67729,
      "longitude": -76.25907,
      "ubigeo": 160201
    },
    {
      "name": "62177",
      "address": "RIO PARANAPURA",
      "latitude": -5.66593,
      "longitude": -76.4917,
      "ubigeo": 160202
    },
    {
      "name": "62173",
      "address": "RIO PARANAPURA",
      "latitude": -5.68609,
      "longitude": -76.626399,
      "ubigeo": 160202
    },
    {
      "name": "64472",
      "address": "RIO ZUMU",
      "latitude": -3.204023,
      "longitude": -72.000541,
      "ubigeo": 160402
    },
    {
      "name": "BALSA YACU",
      "address": "RIO PARANAPURA",
      "latitude": -5.857417,
      "longitude": -76.295242,
      "ubigeo": 160201
    },
    {
      "name": "62497",
      "address": "QUEBRADA YANAYACU",
      "latitude": -6.02088,
      "longitude": -76.3611,
      "ubigeo": 160201
    },
    {
      "name": "62794",
      "address": "CARRETERA ARICA - BALSAPUERTO",
      "latitude": -5.818829,
      "longitude": -76.512532,
      "ubigeo": 160202
    },
    {
      "name": "64476",
      "address": "RIO YAHUASYACU",
      "latitude": -3.293997,
      "longitude": -71.992609,
      "ubigeo": 160402
    },
    {
      "name": "62484",
      "address": "RIO HUALLAGA",
      "latitude": -5.6363,
      "longitude": -75.94608,
      "ubigeo": 160210
    },
    {
      "name": "62086",
      "address": "RIO HUALLAGA",
      "latitude": -6.081613,
      "longitude": -75.904406,
      "ubigeo": 160211
    },
    {
      "name": "62122 JOSE OLAYA BALANDRA",
      "address": "QUEBRADA CHIRAPA-RIO HUALLAGA",
      "latitude": -5.905302,
      "longitude": -76.026583,
      "ubigeo": 160201
    },
    {
      "name": "62147",
      "address": "RIO SHANUSI",
      "latitude": -5.986967,
      "longitude": -76.175787,
      "ubigeo": 160201
    },
    {
      "name": "62405",
      "address": "RIO NUCURAY",
      "latitude": -4.63866,
      "longitude": -75.9851,
      "ubigeo": 160206
    },
    {
      "name": "62043",
      "address": "RIO PARANAPURA",
      "latitude": -5.883,
      "longitude": -76.16131,
      "ubigeo": 160201
    },
    {
      "name": "62060",
      "address": "RIO HUALLAGA",
      "latitude": -5.324184,
      "longitude": -75.8553,
      "ubigeo": 160206
    },
    {
      "name": "62250",
      "address": "RIO NUCURAY",
      "latitude": -4.483305,
      "longitude": -76.052079,
      "ubigeo": 160206
    },
    {
      "name": "62350",
      "address": "CARRETERA YURIMAGUAS - MUNICHIS KM-11",
      "latitude": -5.933505,
      "longitude": -76.1906,
      "ubigeo": 160201
    },
    {
      "name": "62419",
      "address": "QUEBRADA PILLINGUE",
      "latitude": -5.747301,
      "longitude": -76.617182,
      "ubigeo": 160202
    },
    {
      "name": "62421",
      "address": "RIO CACHIYACU",
      "latitude": -5.79728,
      "longitude": -76.598058,
      "ubigeo": 160202
    },
    {
      "name": "62492",
      "address": "RIO PARANAPURA",
      "latitude": -5.619942,
      "longitude": -76.626412,
      "ubigeo": 160202
    },
    {
      "name": "62051",
      "address": "RIO HUALLAGA",
      "latitude": -5.83119,
      "longitude": -76.07956,
      "ubigeo": 160201
    },
    {
      "name": "64366",
      "address": "QDA SANTA CATALINA",
      "latitude": -6.83107,
      "longitude": -75.440724,
      "ubigeo": 160605
    },
    {
      "name": "62133",
      "address": "RIO HUALLAGA",
      "latitude": -5.859933,
      "longitude": -76.074046,
      "ubigeo": 160201
    },
    {
      "name": "62479",
      "address": "RIO SHANUSI",
      "latitude": -6.009853,
      "longitude": -76.160052,
      "ubigeo": 160201
    },
    {
      "name": "62484",
      "address": "RIO HUALLAGA",
      "latitude": -5.6363,
      "longitude": -75.94608,
      "ubigeo": 160210
    },
    {
      "name": "62553",
      "address": "QUEBRADA SHISHINAHUA",
      "latitude": -5.73657,
      "longitude": -75.66289,
      "ubigeo": 160210
    },
    {
      "name": "62795",
      "address": "AUTOPISTA ARICA - BALSAPUERTO",
      "latitude": -5.803918,
      "longitude": -76.499595,
      "ubigeo": 160202
    },
    {
      "name": "62801",
      "address": "RIO CACHIYACU",
      "latitude": -5.834154,
      "longitude": -76.528113,
      "ubigeo": 160202
    },
    {
      "name": "62158",
      "address": "RIO PARANAPURA",
      "latitude": -5.879681,
      "longitude": -76.431777,
      "ubigeo": 160202
    },
    {
      "name": "62117",
      "address": "RIO PARANAPURA",
      "latitude": -5.52004,
      "longitude": -76.7371,
      "ubigeo": 160202
    },
    {
      "name": "SAN JUAN DE ZAPOTE",
      "address": "RIO HUALLAGA-QUEBRADA ZAPOTE",
      "latitude": -5.75502,
      "longitude": -76.17923,
      "ubigeo": 160201
    },
    {
      "name": "HUATAPI",
      "address": "RIO HUALLAGA",
      "latitude": -5.60687,
      "longitude": -75.9448,
      "ubigeo": 160210
    },
    {
      "name": "62148",
      "address": "RIO HUALLAGA",
      "latitude": -5.796415,
      "longitude": -76.065865,
      "ubigeo": 160201
    },
    {
      "name": "62197",
      "address": "RIO PARANAPURA",
      "latitude": -5.870834,
      "longitude": -76.186778,
      "ubigeo": 160201
    },
    {
      "name": "62403",
      "address": "RIO CACHIYACU",
      "latitude": -5.8454,
      "longitude": -76.5454,
      "ubigeo": 160202
    },
    {
      "name": "62780",
      "address": "QUEBRADA PANANSILLO",
      "latitude": -5.598453,
      "longitude": -76.53886,
      "ubigeo": 160202
    },
    {
      "name": "60670",
      "address": "RIO UCAYALI",
      "latitude": -5.669614,
      "longitude": -74.277366,
      "ubigeo": 160504
    },
    {
      "name": "62196",
      "address": "RIO PARANAPURA",
      "latitude": -5.8315,
      "longitude": -76.348353,
      "ubigeo": 160202
    },
    {
      "name": "62268",
      "address": "RIO PARANAPURA",
      "latitude": -5.679808,
      "longitude": -76.593531,
      "ubigeo": 160202
    },
    {
      "name": "62426",
      "address": "RIO GHUALLAGA",
      "latitude": -5.837361,
      "longitude": -76.061665,
      "ubigeo": 160201
    },
    {
      "name": "62427",
      "address": "RIO HUALLAGA",
      "latitude": -5.793732,
      "longitude": -76.183932,
      "ubigeo": 160201
    },
    {
      "name": "62761",
      "address": "TROCHA CARROZABLE",
      "latitude": -5.858042,
      "longitude": -76.457822,
      "ubigeo": 160202
    },
    {
      "name": "62056",
      "address": "CALLE JOSE MURAYARI 230",
      "latitude": -5.238195,
      "longitude": -75.682842,
      "ubigeo": 160206
    },
    {
      "name": "LINO CURITIMA CARITIMARI",
      "address": "RIO HUALLAGA",
      "latitude": -5.3165,
      "longitude": -75.8177,
      "ubigeo": 160206
    },
    {
      "name": "62212",
      "address": "QUEBRADA SABALOYACU",
      "latitude": -5.626178,
      "longitude": -76.60594,
      "ubigeo": 160202
    },
    {
      "name": "62232",
      "address": "RIO AYPENA",
      "latitude": -5.187043,
      "longitude": -76.06745,
      "ubigeo": 160205
    },
    {
      "name": "62431",
      "address": "QUEBRADA YANAYACU",
      "latitude": -5.893869,
      "longitude": -76.267006,
      "ubigeo": 160201
    },
    {
      "name": "62446",
      "address": "RIO SHANUSI",
      "latitude": -6.050522,
      "longitude": -76.202731,
      "ubigeo": 160201
    },
    {
      "name": "62491",
      "address": "RIO HUALLAGA",
      "latitude": -5.32208,
      "longitude": -75.73325,
      "ubigeo": 160206
    },
    {
      "name": "62391",
      "address": "QUEBRADA SHISHINAHUA",
      "latitude": -5.713544,
      "longitude": -75.75152,
      "ubigeo": 160210
    },
    {
      "name": "62563",
      "address": "RIO HUALLAGA",
      "latitude": -5.740565,
      "longitude": -76.137904,
      "ubigeo": 160201
    },
    {
      "name": "62544",
      "address": "QUEBRADA SUPUYACU",
      "latitude": -5.402046,
      "longitude": -76.610705,
      "ubigeo": 160205
    },
    {
      "name": "62581",
      "address": "QUEBRADA ARMANAYACU",
      "latitude": -5.910486,
      "longitude": -76.483172,
      "ubigeo": 160202
    },
    {
      "name": "62782",
      "address": "QUEBRADA CACHIYACU",
      "latitude": -5.825084,
      "longitude": -76.558993,
      "ubigeo": 160202
    },
    {
      "name": "62790",
      "address": "ALTO PILLINGUE",
      "latitude": -5.750401,
      "longitude": -76.605358,
      "ubigeo": 160202
    },
    {
      "name": "PUCACURO",
      "address": "RIO MARAÑON",
      "latitude": -5.047392,
      "longitude": -75.549356,
      "ubigeo": 160206
    },
    {
      "name": "62135",
      "address": "QUEBRADA SHISHINAGUA",
      "latitude": -5.673935,
      "longitude": -75.924688,
      "ubigeo": 160210
    },
    {
      "name": "62235",
      "address": "RIO MARAÑON",
      "latitude": -5.027559,
      "longitude": -75.826492,
      "ubigeo": 160206
    },
    {
      "name": "62271 ELVA CHUJUTALLI MUÑOZ",
      "address": "CARRETERA YURIMAGUAS - TARAPOTO KM 26",
      "latitude": -5.999567,
      "longitude": -76.229467,
      "ubigeo": 160201
    },
    {
      "name": "62399",
      "address": "QUEBRADA ARMANAYACU",
      "latitude": -5.86658,
      "longitude": -76.33137,
      "ubigeo": 160202
    },
    {
      "name": "62591",
      "address": "RIO HUALLAGA",
      "latitude": -5.606149,
      "longitude": -75.907898,
      "ubigeo": 160210
    },
    {
      "name": "CRISTO REY",
      "address": "CARRETERA PASTIZAL",
      "latitude": -6.027657,
      "longitude": -75.776038,
      "ubigeo": 160211
    },
    {
      "name": "62766",
      "address": "QUEBRADA YANAYACU",
      "latitude": -6.10765,
      "longitude": -75.75641,
      "ubigeo": 160211
    },
    {
      "name": "SAN FRANCISCO DE PAMPAYACU",
      "address": "QUEBRADA PAMPAYACU",
      "latitude": -6.055653,
      "longitude": -76.45334,
      "ubigeo": 160201
    },
    {
      "name": "62044",
      "address": "CARRETERA YURIMAG -TARAPOTO KM 11",
      "latitude": -5.94146,
      "longitude": -76.155355,
      "ubigeo": 160201
    },
    {
      "name": "62109",
      "address": "CARRETERA YURIMAGUAS - TARAPOTO KM 21",
      "latitude": -5.981998,
      "longitude": -76.202153,
      "ubigeo": 160201
    },
    {
      "name": "62270",
      "address": "QUEBRADA CUIPARILLO",
      "latitude": -5.900241,
      "longitude": -75.989555,
      "ubigeo": 160201
    },
    {
      "name": "62389",
      "address": "RIO NUCURAY",
      "latitude": -4.806033,
      "longitude": -75.801534,
      "ubigeo": 160206
    },
    {
      "name": "62398",
      "address": "RIO HUALLAGA",
      "latitude": -5.86258,
      "longitude": -76.07097,
      "ubigeo": 160201
    },
    {
      "name": "62493",
      "address": "RIO PARANAPURA",
      "latitude": -5.893832,
      "longitude": -76.2494,
      "ubigeo": 160201
    },
    {
      "name": "62356",
      "address": "QUEBRADA PALOMETAYACU",
      "latitude": -5.431326,
      "longitude": -76.631117,
      "ubigeo": 160205
    },
    {
      "name": "62198",
      "address": "RIO HUALLAGA",
      "latitude": -5.819765,
      "longitude": -76.199987,
      "ubigeo": 160201
    },
    {
      "name": "62584",
      "address": "QUEBRADA YANAYACU",
      "latitude": -5.669406,
      "longitude": -76.596993,
      "ubigeo": 160202
    },
    {
      "name": "62126",
      "address": "RIO BALSAPUERTO",
      "latitude": -5.949719,
      "longitude": -76.44654,
      "ubigeo": 160202
    },
    {
      "name": "62169",
      "address": "RIO PARANAPURA",
      "latitude": -5.784409,
      "longitude": -76.49997,
      "ubigeo": 160202
    },
    {
      "name": "62077",
      "address": "RIO HUALLAGA",
      "latitude": -5.520075,
      "longitude": -75.871832,
      "ubigeo": 160210
    },
    {
      "name": "62254",
      "address": "RIO HUALLAGA",
      "latitude": -5.690362,
      "longitude": -75.8863,
      "ubigeo": 160210
    },
    {
      "name": "62390",
      "address": "RIO MARAÑON",
      "latitude": -4.946142,
      "longitude": -75.518555,
      "ubigeo": 160206
    },
    {
      "name": "62447",
      "address": "CALLE LA VICTORIA",
      "latitude": -5.68281,
      "longitude": -76.63491,
      "ubigeo": 160202
    },
    {
      "name": "62452",
      "address": "RIO PARANAPURA",
      "latitude": -5.6497,
      "longitude": -76.51016,
      "ubigeo": 160202
    },
    {
      "name": "62571",
      "address": "RIO PARANAPURA",
      "latitude": -5.817319,
      "longitude": -76.371166,
      "ubigeo": 160202
    },
    {
      "name": "62482",
      "address": "QUEBRADA SHISHINAHUA",
      "latitude": -5.724793,
      "longitude": -75.762388,
      "ubigeo": 160210
    },
    {
      "name": "62394",
      "address": "RIO HUALLAGA",
      "latitude": -6.071082,
      "longitude": -75.96232,
      "ubigeo": 160211
    },
    {
      "name": "62062",
      "address": "CALLE EMANUEL VARADERO DE TIBILO",
      "latitude": -5.23884,
      "longitude": -75.59622,
      "ubigeo": 160206
    },
    {
      "name": "COTOYACU",
      "address": "RIO SHANUSI",
      "latitude": -6.06024,
      "longitude": -76.197011,
      "ubigeo": 160201
    },
    {
      "name": "62175",
      "address": "RIO HUALLAGA",
      "latitude": -5.884653,
      "longitude": -76.028709,
      "ubigeo": 160201
    },
    {
      "name": "62253",
      "address": "RIO MARAÑON",
      "latitude": -5.079857,
      "longitude": -75.627423,
      "ubigeo": 160206
    },
    {
      "name": "62388",
      "address": "RIO PARANAPURA",
      "latitude": -5.794103,
      "longitude": -76.364002,
      "ubigeo": 160202
    },
    {
      "name": "62488",
      "address": "RIO HUALLAGA",
      "latitude": -5.78222,
      "longitude": -76.00749,
      "ubigeo": 160201
    },
    {
      "name": "62572",
      "address": "RIO PARANAPURA",
      "latitude": -5.62139,
      "longitude": -76.608927,
      "ubigeo": 160202
    },
    {
      "name": "62071",
      "address": "RIO HUALLAGA",
      "latitude": -5.432165,
      "longitude": -75.850427,
      "ubigeo": 160210
    },
    {
      "name": "62583",
      "address": "QUEBRADA YANAYACU - RIO ALTO PARANAPURA",
      "latitude": -5.66285,
      "longitude": -76.576963,
      "ubigeo": 160202
    },
    {
      "name": "62797",
      "address": "QUEBRADA SABALOYACU",
      "latitude": -5.622178,
      "longitude": -76.676946,
      "ubigeo": 160202
    },
    {
      "name": "ANGAMOS",
      "address": "RIO HUALLAGA",
      "latitude": -5.659327,
      "longitude": -75.940452,
      "ubigeo": 160210
    },
    {
      "name": "62331",
      "address": "RIO HUALLAGA",
      "latitude": -5.661438,
      "longitude": -75.997583,
      "ubigeo": 160201
    },
    {
      "name": "62347",
      "address": "YURIMAGUAS-TARAPOTO",
      "latitude": -5.941242,
      "longitude": -76.241355,
      "ubigeo": 160201
    },
    {
      "name": "62582",
      "address": "QUEBRADA CACHIYACU",
      "latitude": -5.703865,
      "longitude": -76.459695,
      "ubigeo": 160202
    },
    {
      "name": "62601",
      "address": "QUEBRADA METOYACU",
      "latitude": -5.768817,
      "longitude": -76.274735,
      "ubigeo": 160201
    },
    {
      "name": "62751",
      "address": "CARRETERA YURIMAGUAS - JEBEROS KM. 11",
      "latitude": -5.8377,
      "longitude": -76.223004,
      "ubigeo": 160201
    },
    {
      "name": "62756",
      "address": "QUEBRADA SHISHINAHUA",
      "latitude": -5.716179,
      "longitude": -75.727145,
      "ubigeo": 160210
    },
    {
      "name": "62770",
      "address": "CALLE NUEVA LIBERTAD",
      "latitude": -5.94518,
      "longitude": -76.33456,
      "ubigeo": 160201
    },
    {
      "name": "62781",
      "address": "QUEBRADA PANANSILLO",
      "latitude": -5.570458,
      "longitude": -76.555319,
      "ubigeo": 160202
    },
    {
      "name": "62134",
      "address": "RIO PARANAPURA",
      "latitude": -5.928862,
      "longitude": -76.415169,
      "ubigeo": 160202
    },
    {
      "name": "62150",
      "address": "RIO PARANAPURA",
      "latitude": -5.53447,
      "longitude": -76.726434,
      "ubigeo": 160202
    },
    {
      "name": "62296",
      "address": "RIO HUALLAGA",
      "latitude": -5.79776,
      "longitude": -76.03918,
      "ubigeo": 160201
    },
    {
      "name": "62470",
      "address": "QUEBRADA YANAYACU",
      "latitude": -6.09892,
      "longitude": -75.797417,
      "ubigeo": 160211
    },
    {
      "name": "62486",
      "address": "QUEBRADA SHISHINAHUA",
      "latitude": -5.701976,
      "longitude": -75.867036,
      "ubigeo": 160210
    },
    {
      "name": "62552",
      "address": "RIO CACHIYACU",
      "latitude": -5.791087,
      "longitude": -76.482153,
      "ubigeo": 160202
    },
    {
      "name": "62578",
      "address": "QUEBRADA CACHIYACU",
      "latitude": -5.819592,
      "longitude": -76.573497,
      "ubigeo": 160202
    },
    {
      "name": "62755",
      "address": "QUEBRADA SHISHINAHUA",
      "latitude": -5.694087,
      "longitude": -75.905343,
      "ubigeo": 160210
    },
    {
      "name": "62020",
      "address": "ALTO NUCURAY",
      "latitude": -4.34406,
      "longitude": -76.1499,
      "ubigeo": 160206
    },
    {
      "name": "62029",
      "address": "NUEVO ENCANTO",
      "latitude": -5.903327,
      "longitude": -75.853579,
      "ubigeo": 160211
    },
    {
      "name": "62281",
      "address": "RIO HUALLAGA-Q ZAPOTE",
      "latitude": -5.741529,
      "longitude": -76.214907,
      "ubigeo": 160201
    },
    {
      "name": "62573",
      "address": "RIO HUALLAGA",
      "latitude": -5.821984,
      "longitude": -75.977409,
      "ubigeo": 160201
    },
    {
      "name": "62579",
      "address": "RIO CACHIYACU",
      "latitude": -5.795282,
      "longitude": -76.527619,
      "ubigeo": 160202
    },
    {
      "name": "BELLO HORIZONTE",
      "address": "RIO HUALLAGA",
      "latitude": -5.432339,
      "longitude": -75.850626,
      "ubigeo": 160210
    },
    {
      "name": "62111",
      "address": "RIO PARANAPURA",
      "latitude": -5.739563,
      "longitude": -76.330626,
      "ubigeo": 160202
    },
    {
      "name": "62030",
      "address": "LOUIS TERRY",
      "latitude": -6.026924,
      "longitude": -75.775216,
      "ubigeo": 160211
    },
    {
      "name": "62467",
      "address": "QBDA MACAMBOYACU",
      "latitude": -5.912654,
      "longitude": -76.505397,
      "ubigeo": 160202
    },
    {
      "name": "62551",
      "address": "RIO PAVAYACU",
      "latitude": -4.723049,
      "longitude": -76.103066,
      "ubigeo": 160206
    },
    {
      "name": "62349",
      "address": "QUEBRADA SUPAY YACU",
      "latitude": -5.335406,
      "longitude": -76.596803,
      "ubigeo": 160205
    },
    {
      "name": "62123",
      "address": "RIO PARANAPURA",
      "latitude": -5.861142,
      "longitude": -76.562884,
      "ubigeo": 160202
    },
    {
      "name": "62066",
      "address": "QUEBRADA PAUCARYACU",
      "latitude": -5.375496,
      "longitude": -75.757731,
      "ubigeo": 160206
    },
    {
      "name": "62154",
      "address": "CARRETERA ARAHUANA SANANGUILLO - QUEBRADA SANANGULLO",
      "latitude": -5.341593,
      "longitude": -75.743281,
      "ubigeo": 160206
    },
    {
      "name": "QUINAYOC",
      "address": "RIO SHANUSI",
      "latitude": -6.019468,
      "longitude": -76.172931,
      "ubigeo": 160201
    },
    {
      "name": "62211",
      "address": "CALLE SAN JUAN DE SAPU YACU",
      "latitude": -5.0525,
      "longitude": -76.30366,
      "ubigeo": 160205
    },
    {
      "name": "62246",
      "address": "RIO NUCURAY",
      "latitude": -4.676255,
      "longitude": -75.931137,
      "ubigeo": 160206
    },
    {
      "name": "62401",
      "address": "RIO PARANAPURA",
      "latitude": -5.84156,
      "longitude": -76.31883,
      "ubigeo": 160202
    },
    {
      "name": "62472",
      "address": "CALLE CHOROPUESTO",
      "latitude": -5.59813,
      "longitude": -76.24846,
      "ubigeo": 160201
    },
    {
      "name": "62593",
      "address": "RIO AYPENAS",
      "latitude": -5.291001,
      "longitude": -76.528959,
      "ubigeo": 160205
    },
    {
      "name": "62776",
      "address": "RIO PARANAPURA",
      "latitude": -5.478732,
      "longitude": -76.673985,
      "ubigeo": 160202
    },
    {
      "name": "62798",
      "address": "QUEBRADA CACHIZAPA",
      "latitude": -5.839197,
      "longitude": -75.911644,
      "ubigeo": 160211
    },
    {
      "name": "62129",
      "address": "RIO PARANAPURA",
      "latitude": -5.593693,
      "longitude": -76.636097,
      "ubigeo": 160202
    },
    {
      "name": "62041",
      "address": "RIO HUALLAGA",
      "latitude": -5.871957,
      "longitude": -76.073573,
      "ubigeo": 160201
    },
    {
      "name": "62038",
      "address": "RIO HUALLAGA",
      "latitude": -5.898718,
      "longitude": -76.059849,
      "ubigeo": 160201
    },
    {
      "name": "62387",
      "address": "RIO ARMANAYACU",
      "latitude": -5.899825,
      "longitude": -76.391435,
      "ubigeo": 160202
    },
    {
      "name": "62462",
      "address": "YURIMAGUAS-TARAPOTO",
      "latitude": -6.050518,
      "longitude": -76.279334,
      "ubigeo": 160201
    },
    {
      "name": "62089",
      "address": "RIO PARANAPURA",
      "latitude": -5.659482,
      "longitude": -76.56533,
      "ubigeo": 160202
    },
    {
      "name": "62046",
      "address": "RIO PARANAPURA",
      "latitude": -5.869044,
      "longitude": -76.207198,
      "ubigeo": 160201
    },
    {
      "name": "62058",
      "address": "RIO HUALLAGA - LAGO ACHUAL TIPISHCA",
      "latitude": -5.416819,
      "longitude": -75.813003,
      "ubigeo": 160206
    },
    {
      "name": "62249",
      "address": "RIO PAVAYACU",
      "latitude": -4.930057,
      "longitude": -75.818935,
      "ubigeo": 160206
    },
    {
      "name": "62449",
      "address": "RIO SHANUSI",
      "latitude": -5.935823,
      "longitude": -76.108582,
      "ubigeo": 160201
    },
    {
      "name": "64272",
      "address": "RIO UCAYALI",
      "latitude": -6.674381,
      "longitude": -75.096029,
      "ubigeo": 160605
    },
    {
      "name": "64276",
      "address": "QDA SANTA CATALINA",
      "latitude": -6.724387,
      "longitude": -75.431367,
      "ubigeo": 160605
    },
    {
      "name": "62330",
      "address": "RIO HUALLAGA",
      "latitude": -5.728907,
      "longitude": -76.055913,
      "ubigeo": 160201
    },
    {
      "name": "62768",
      "address": "QUEBRADA ARMANAYACU",
      "latitude": -5.888531,
      "longitude": -76.385664,
      "ubigeo": 160202
    },
    {
      "name": "62778",
      "address": "RIO PARANAPURA",
      "latitude": -5.638114,
      "longitude": -76.54971,
      "ubigeo": 160202
    },
    {
      "name": "62178",
      "address": "RIO PARANAPURA",
      "latitude": -5.889165,
      "longitude": -76.425684,
      "ubigeo": 160202
    },
    {
      "name": "62422",
      "address": "RIO PARANAPURA",
      "latitude": -5.722654,
      "longitude": -76.411135,
      "ubigeo": 160202
    },
    {
      "name": "62045",
      "address": "RIO HUALLAGA",
      "latitude": -5.8398,
      "longitude": -76.16856,
      "ubigeo": 160201
    },
    {
      "name": "62115",
      "address": "CARRETERA YURIMAGUAS - MUNICHIS KM. 10",
      "latitude": -5.895188,
      "longitude": -76.186075,
      "ubigeo": 160201
    },
    {
      "name": "62057",
      "address": "RIO HUALLAGA",
      "latitude": -5.118897,
      "longitude": -75.689163,
      "ubigeo": 160206
    },
    {
      "name": "62085",
      "address": "RIO HUALLAGA",
      "latitude": -5.996467,
      "longitude": -75.932663,
      "ubigeo": 160211
    },
    {
      "name": "62481",
      "address": "RIO MARAÑON",
      "latitude": -5.027645,
      "longitude": -75.616104,
      "ubigeo": 160206
    },
    {
      "name": "62338",
      "address": "RIO CACHIYACU",
      "latitude": -5.323013,
      "longitude": -76.486356,
      "ubigeo": 160205
    },
    {
      "name": "64301",
      "address": "RIO UCAYALI",
      "latitude": -6.082383,
      "longitude": -74.944002,
      "ubigeo": 160605
    },
    {
      "name": "62783",
      "address": "RIO PARANAPURA",
      "latitude": -5.679414,
      "longitude": -76.462469,
      "ubigeo": 160202
    },
    {
      "name": "62088",
      "address": "UNION COMERCIO",
      "latitude": -5.71068,
      "longitude": -76.44182,
      "ubigeo": 160202
    },
    {
      "name": "SAN ANTONIO",
      "address": "QBDA RUMIYACU",
      "latitude": -5.2161,
      "longitude": -76.2185,
      "ubigeo": 160205
    },
    {
      "name": "62125",
      "address": "RIO AYPENA",
      "latitude": -5.1558,
      "longitude": -76.0178,
      "ubigeo": 160205
    },
    {
      "name": "JORGE CHAVEZ",
      "address": "RIO HUALLAGA-LAGO PUCUNA",
      "latitude": -6.018249,
      "longitude": -76.027886,
      "ubigeo": 160211
    },
    {
      "name": "62273",
      "address": "RIO HUALLAGA",
      "latitude": -5.3661,
      "longitude": -75.8283,
      "ubigeo": 160206
    },
    {
      "name": "60614",
      "address": "CONTAMANILLO",
      "latitude": -5.048245,
      "longitude": -73.889222,
      "ubigeo": 160501
    },
    {
      "name": "62293",
      "address": "RIO HUALLAGA-QUEBRADA CURIYACU",
      "latitude": -5.797944,
      "longitude": -76.058127,
      "ubigeo": 160201
    },
    {
      "name": "62319",
      "address": "RIO YANAYACU",
      "latitude": -5.672034,
      "longitude": -76.655695,
      "ubigeo": 160202
    },
    {
      "name": "62397",
      "address": "RIO HUALLAGA",
      "latitude": -5.811553,
      "longitude": -76.097608,
      "ubigeo": 160201
    },
    {
      "name": "62490",
      "address": "CALLE RIO HUALLAGA",
      "latitude": -5.3022,
      "longitude": -75.7752,
      "ubigeo": 160206
    },
    {
      "name": "62335",
      "address": "RIO HUALLAGA",
      "latitude": -5.780692,
      "longitude": -76.026503,
      "ubigeo": 160201
    },
    {
      "name": "62574",
      "address": "RIO ARMANAYACU",
      "latitude": -5.91785,
      "longitude": -76.433003,
      "ubigeo": 160202
    },
    {
      "name": "62592",
      "address": "RIO AYPENAS",
      "latitude": -5.335721,
      "longitude": -76.489242,
      "ubigeo": 160205
    },
    {
      "name": "62153",
      "address": "RIO PARANAPURA",
      "latitude": -5.925901,
      "longitude": -76.46847,
      "ubigeo": 160202
    },
    {
      "name": "62121",
      "address": "RIO PARANAPURA",
      "latitude": -5.959675,
      "longitude": -76.344616,
      "ubigeo": 160202
    },
    {
      "name": "62025",
      "address": "SAN SEBASTIAN",
      "latitude": -5.019443,
      "longitude": -75.713933,
      "ubigeo": 160206
    },
    {
      "name": "62055",
      "address": "RIO HUALLAGA",
      "latitude": -5.851906,
      "longitude": -76.129343,
      "ubigeo": 160201
    },
    {
      "name": "62257",
      "address": "RIO MARAÑON",
      "latitude": -5.070727,
      "longitude": -75.597874,
      "ubigeo": 160206
    },
    {
      "name": "62194",
      "address": "QUEBRADA ZAPOTE",
      "latitude": -5.77632,
      "longitude": -76.16917,
      "ubigeo": 160201
    },
    {
      "name": "60686",
      "address": "PADRE GINER",
      "latitude": -4.855484,
      "longitude": -73.704021,
      "ubigeo": 160510
    },
    {
      "name": "62266",
      "address": "RIO HUALLAGA S\/N",
      "latitude": -6.04224,
      "longitude": -75.97014,
      "ubigeo": 160211
    },
    {
      "name": "60780",
      "address": "MONTE ALEGRE",
      "latitude": -6.483482,
      "longitude": -74.385019,
      "ubigeo": 160502
    },
    {
      "name": "62252",
      "address": "RIO NUCURAY",
      "latitude": -4.791088,
      "longitude": -75.822761,
      "ubigeo": 160206
    },
    {
      "name": "62265",
      "address": "RIO HUALLAGA",
      "latitude": -6.11193,
      "longitude": -75.769787,
      "ubigeo": 160211
    },
    {
      "name": "62351",
      "address": "RIO HUALLAGA",
      "latitude": -5.773148,
      "longitude": -76.045285,
      "ubigeo": 160201
    },
    {
      "name": "62413",
      "address": "QUEBRADA SHISHINAHUA",
      "latitude": -5.729801,
      "longitude": -75.815778,
      "ubigeo": 160210
    },
    {
      "name": "62477",
      "address": "RIO HUALLAGA",
      "latitude": -5.131457,
      "longitude": -75.623827,
      "ubigeo": 160206
    },
    {
      "name": "62414",
      "address": "QUEBRADA ARMANAYACU",
      "latitude": -5.87432,
      "longitude": -76.36318,
      "ubigeo": 160202
    },
    {
      "name": "KIHSUSU WA'AN",
      "address": "CARRETERA PASTIZAL",
      "latitude": -6.026945,
      "longitude": -75.775217,
      "ubigeo": 160211
    },
    {
      "name": "62777",
      "address": "RIO PARANAPURA",
      "latitude": -5.605968,
      "longitude": -76.622093,
      "ubigeo": 160202
    },
    {
      "name": "62035",
      "address": "RIO PARANAPURA",
      "latitude": -5.867488,
      "longitude": -76.311902,
      "ubigeo": 160201
    },
    {
      "name": "PUCATE",
      "address": "RIO HUALLAGA",
      "latitude": -5.52284,
      "longitude": -75.92227,
      "ubigeo": 160210
    },
    {
      "name": "62137",
      "address": "RIO HUALLAGA",
      "latitude": -5.801542,
      "longitude": -76.18776,
      "ubigeo": 160201
    },
    {
      "name": "62415",
      "address": "QUEBRADA YANAYACU",
      "latitude": -5.920427,
      "longitude": -76.28469,
      "ubigeo": 160201
    },
    {
      "name": "62459",
      "address": "RIO HUALLAGA",
      "latitude": -5.899294,
      "longitude": -76.053489,
      "ubigeo": 160201
    },
    {
      "name": "62473",
      "address": "RIO HUALLAGA",
      "latitude": -5.78455,
      "longitude": -76.17969,
      "ubigeo": 160201
    },
    {
      "name": "62464",
      "address": "RIO NUCURAY",
      "latitude": -4.740815,
      "longitude": -75.901399,
      "ubigeo": 160206
    },
    {
      "name": "62594",
      "address": "RIO NUCURAY",
      "latitude": -5.037743,
      "longitude": -75.647454,
      "ubigeo": 160206
    },
    {
      "name": "62800",
      "address": "RIO CACHIYACU",
      "latitude": -5.771101,
      "longitude": -76.522014,
      "ubigeo": 160202
    },
    {
      "name": "62048",
      "address": "RIO HUALLAGA",
      "latitude": -5.756345,
      "longitude": -76.140337,
      "ubigeo": 160201
    },
    {
      "name": "62050",
      "address": "RIO HUALLAGA",
      "latitude": -5.69007,
      "longitude": -76.02672,
      "ubigeo": 160201
    },
    {
      "name": "62054",
      "address": "RIO SHANUSI",
      "latitude": -5.960444,
      "longitude": -76.151801,
      "ubigeo": 160201
    },
    {
      "name": "60796",
      "address": "QUEBRADA RIO JEBEROS",
      "latitude": -3.942579,
      "longitude": -70.518802,
      "ubigeo": 160401
    },
    {
      "name": "62087",
      "address": "RIO HUALLAGA",
      "latitude": -6.03456,
      "longitude": -75.93439,
      "ubigeo": 160211
    },
    {
      "name": "62183",
      "address": "RIO AYPENAS",
      "latitude": -5.198537,
      "longitude": -75.726718,
      "ubigeo": 160206
    },
    {
      "name": "62207",
      "address": "RIO HUALLAGA-CAÑO CUIPARI",
      "latitude": -5.984801,
      "longitude": -75.97916,
      "ubigeo": 160211
    },
    {
      "name": "62428",
      "address": "RIO HUALLAGA",
      "latitude": -5.842559,
      "longitude": -76.024962,
      "ubigeo": 160201
    },
    {
      "name": "MIGUEL GRAU SEMINARIO",
      "address": "RIO HUALLAGA-LAGO NARANJAL",
      "latitude": -5.4359,
      "longitude": -75.8753,
      "ubigeo": 160210
    },
    {
      "name": "62759",
      "address": "RIO HUALLAGA",
      "latitude": -5.710846,
      "longitude": -76.073558,
      "ubigeo": 160201
    },
    {
      "name": "62443",
      "address": "RIO SHISHINAHUA",
      "latitude": -5.721627,
      "longitude": -75.797314,
      "ubigeo": 160210
    },
    {
      "name": "62052",
      "address": "RIO HUALLAGA",
      "latitude": -5.77903,
      "longitude": -76.15604,
      "ubigeo": 160201
    },
    {
      "name": "62037",
      "address": "NUEVO LIMON",
      "latitude": -5.30494,
      "longitude": -76.41073,
      "ubigeo": 160205
    },
    {
      "name": "62039",
      "address": "QUEBRADA CURIYACU",
      "latitude": -5.898739,
      "longitude": -76.047147,
      "ubigeo": 160201
    },
    {
      "name": "62233",
      "address": "QUEBRADA ULLPACAÑO",
      "latitude": -5.56824,
      "longitude": -75.886231,
      "ubigeo": 160210
    },
    {
      "name": "54481",
      "address": "RIO ARABELA",
      "latitude": -2.121442,
      "longitude": -74.871274,
      "ubigeo": 160107
    },
    {
      "name": "62251",
      "address": "RIO PAVAYACU",
      "latitude": -4.863438,
      "longitude": -75.916388,
      "ubigeo": 160206
    },
    {
      "name": "62396",
      "address": "RIO HUALLAGA",
      "latitude": -5.596502,
      "longitude": -75.958999,
      "ubigeo": 160210
    },
    {
      "name": "62471",
      "address": "RIO AYPENA",
      "latitude": -5.1571,
      "longitude": -75.9936,
      "ubigeo": 160205
    },
    {
      "name": "62596",
      "address": "RIO MARAÑON",
      "latitude": -4.955612,
      "longitude": -75.507459,
      "ubigeo": 160206
    },
    {
      "name": "62779",
      "address": "RIO YANAYACU",
      "latitude": -5.6735,
      "longitude": -76.644139,
      "ubigeo": 160202
    },
    {
      "name": "62176",
      "address": "RIO HUALLAGA",
      "latitude": -5.923814,
      "longitude": -76.027658,
      "ubigeo": 160201
    },
    {
      "name": "62444",
      "address": "RIO HUALLAGA",
      "latitude": -5.124107,
      "longitude": -75.597237,
      "ubigeo": 160206
    },
    {
      "name": "62457",
      "address": "RIO HUALLAGA",
      "latitude": -5.3484,
      "longitude": -75.8322,
      "ubigeo": 160206
    },
    {
      "name": "AWAJUN - WANIP",
      "address": "QUEBRADA CUIPARILLO",
      "latitude": -5.927594,
      "longitude": -75.830561,
      "ubigeo": 160211
    },
    {
      "name": "62059",
      "address": "RIO MARAÑON",
      "latitude": -5.040327,
      "longitude": -75.760952,
      "ubigeo": 160206
    },
    {
      "name": "62118",
      "address": "RIO PARANAPURA",
      "latitude": -5.86752,
      "longitude": -76.29544,
      "ubigeo": 160201
    },
    {
      "name": "62151",
      "address": "RIO HUALLAGA",
      "latitude": -6.003493,
      "longitude": -75.997752,
      "ubigeo": 160211
    },
    {
      "name": "62208",
      "address": "RIO SHANUSI",
      "latitude": -6.056937,
      "longitude": -76.212207,
      "ubigeo": 160201
    },
    {
      "name": "62248",
      "address": "RIO PAVAYACU",
      "latitude": -4.76688,
      "longitude": -76.05746,
      "ubigeo": 160206
    },
    {
      "name": "62255",
      "address": "RIO MARAÑON",
      "latitude": -5.034245,
      "longitude": -75.566686,
      "ubigeo": 160206
    },
    {
      "name": "62393",
      "address": "RIO HUALLAGA",
      "latitude": -5.816989,
      "longitude": -76.051526,
      "ubigeo": 160201
    },
    {
      "name": "62487",
      "address": "RIO HUALLAGA",
      "latitude": -5.837128,
      "longitude": -76.113128,
      "ubigeo": 160201
    },
    {
      "name": "62213",
      "address": "RIO HUALLAGA",
      "latitude": -5.062279,
      "longitude": -75.656575,
      "ubigeo": 160206
    },
    {
      "name": "62775",
      "address": "RIO CACHIYACU",
      "latitude": -5.92513,
      "longitude": -76.63946,
      "ubigeo": 160202
    },
    {
      "name": "62070",
      "address": "RIO HUALLAGA",
      "latitude": -5.58722,
      "longitude": -75.92302,
      "ubigeo": 160210
    },
    {
      "name": "62344",
      "address": "RIO HUALLAGA",
      "latitude": -5.5333,
      "longitude": -75.9238,
      "ubigeo": 160210
    },
    {
      "name": "62598",
      "address": "QUEBRADA CUIPARILLO",
      "latitude": -5.891417,
      "longitude": -75.870027,
      "ubigeo": 160211
    },
    {
      "name": "62600",
      "address": "RIVAS",
      "latitude": -6.022634,
      "longitude": -75.747814,
      "ubigeo": 160211
    },
    {
      "name": "SAN JOAQUIN",
      "address": "RIO HUALLAGA",
      "latitude": -6.03703,
      "longitude": -75.99441,
      "ubigeo": 160211
    },
    {
      "name": "62772",
      "address": "GETSEMANI",
      "latitude": -5.765869,
      "longitude": -76.475937,
      "ubigeo": 160202
    },
    {
      "name": "62803",
      "address": "QUEBRADA ARMANAYACU",
      "latitude": -5.947573,
      "longitude": -76.482975,
      "ubigeo": 160202
    },
    {
      "name": "62799",
      "address": "CARRETERA YURIMAGUAS - TARAPOTO",
      "latitude": -6.054003,
      "longitude": -76.041119,
      "ubigeo": 160211
    },
    {
      "name": "62032",
      "address": "CALLE AMAZONAS 458",
      "latitude": -4.8308,
      "longitude": -76.5541,
      "ubigeo": 160701
    },
    {
      "name": "ANDRES AVELINO CACERES",
      "address": "RIO MARAÑON",
      "latitude": -4.568082,
      "longitude": -77.420397,
      "ubigeo": 160703
    },
    {
      "name": "SAN LORENZO",
      "address": "CALLE ALFONSO VALCARCEL A S\/N",
      "latitude": -4.8252,
      "longitude": -76.556,
      "ubigeo": 160701
    },
    {
      "name": "62141",
      "address": "RIO MARAÑON",
      "latitude": -4.566945,
      "longitude": -77.418237,
      "ubigeo": 160703
    },
    {
      "name": "62283",
      "address": "JIRON MARAÑON 1660",
      "latitude": -4.82554,
      "longitude": -76.5636,
      "ubigeo": 160701
    },
    {
      "name": "JESUS NAZARENO",
      "address": "JIRON MARAÑON 1170",
      "latitude": -4.82856,
      "longitude": -76.55927,
      "ubigeo": 160701
    },
    {
      "name": "62385 VIRGEN DE FATIMA",
      "address": "CALLE VENEZUELA S\/N",
      "latitude": -4.8225,
      "longitude": -76.555,
      "ubigeo": 160701
    },
    {
      "name": "62032",
      "address": "CALLE AMAZONAS 458",
      "latitude": -4.8308,
      "longitude": -76.5541,
      "ubigeo": 160701
    },
    {
      "name": "62283",
      "address": "JIRON MARAÑON 1660",
      "latitude": -4.82554,
      "longitude": -76.5636,
      "ubigeo": 160701
    },
    {
      "name": "JESUS NAZARENO",
      "address": "JIRON MARAÑON 1170",
      "latitude": -4.82856,
      "longitude": -76.55927,
      "ubigeo": 160701
    },
    {
      "name": "62846",
      "address": "QUEBRADA HUNGURAHUI",
      "latitude": -4.454333,
      "longitude": -76.44169,
      "ubigeo": 160705
    },
    {
      "name": "62090",
      "address": "RIO PASTAZA",
      "latitude": -4.655,
      "longitude": -76.5859,
      "ubigeo": 160705
    },
    {
      "name": "NUIMIAT ACHUAR WARUSH",
      "address": "RIO HUITUYACU",
      "latitude": -3.200261,
      "longitude": -77.065948,
      "ubigeo": 160706
    },
    {
      "name": "PUERTO ALEGRIA",
      "address": "RIO MORONA",
      "latitude": -4.32733,
      "longitude": -77.215689,
      "ubigeo": 160704
    },
    {
      "name": "62214",
      "address": "BARRIO LA VICTORIA",
      "latitude": -4.822182,
      "longitude": -76.561138,
      "ubigeo": 160701
    },
    {
      "name": "SAN PEDRO",
      "address": "RIO PASTAZA",
      "latitude": -4.6519,
      "longitude": -76.58863,
      "ubigeo": 160705
    },
    {
      "name": "ACHUAR MASHUTAK",
      "address": "MARGEN IZQUIERDO - QDA. MANCHARI S\/N",
      "latitude": -3.44447,
      "longitude": -76.77128,
      "ubigeo": 160706
    },
    {
      "name": "NUEVO ANDOAS",
      "address": "RIO PASTAZA",
      "latitude": -2.80347,
      "longitude": -76.460582,
      "ubigeo": 160706
    },
    {
      "name": "62316",
      "address": "RIO CAHUAPANAS",
      "latitude": -5.28664,
      "longitude": -76.98728,
      "ubigeo": 160702
    },
    {
      "name": "62105",
      "address": "RIO CAHUAPANAS",
      "latitude": -5.248795,
      "longitude": -77.041889,
      "ubigeo": 160702
    },
    {
      "name": "62130",
      "address": "RIO MORONA",
      "latitude": -4.326005,
      "longitude": -77.215966,
      "ubigeo": 160704
    },
    {
      "name": "62065",
      "address": "CARRETERA YURIMAGUAS-TARAPOTO KM 14",
      "latitude": -5.839885,
      "longitude": -76.168587,
      "ubigeo": 160201
    },
    {
      "name": "YANKUAM JINTIA",
      "address": "MARAÑON S\/N",
      "latitude": -4.8278,
      "longitude": -76.5621,
      "ubigeo": 160701
    },
    {
      "name": "62736",
      "address": "BOCA RIO SILLAY",
      "latitude": -5.32161,
      "longitude": -76.77951,
      "ubigeo": 160702
    },
    {
      "name": "62155",
      "address": "RIO PASTAZA",
      "latitude": -2.805515,
      "longitude": -76.461774,
      "ubigeo": 160706
    },
    {
      "name": "WASHIENTZA",
      "address": "RIO HUASAGA",
      "latitude": -3.333988,
      "longitude": -76.570435,
      "ubigeo": 160706
    },
    {
      "name": "JOSE CARLOS MARIATEGUI",
      "address": "RIO CAHUAPANAS",
      "latitude": -5.130223,
      "longitude": -76.93797,
      "ubigeo": 160702
    },
    {
      "name": "62304 SANTA MARIA",
      "address": "RIO CAHUAPANAS",
      "latitude": -5.248951,
      "longitude": -77.03967,
      "ubigeo": 160702
    },
    {
      "name": "KAUPAN",
      "address": "RIO CAHUAPANAS",
      "latitude": -5.28177,
      "longitude": -76.98824,
      "ubigeo": 160702
    },
    {
      "name": "62140",
      "address": "LAGO ANATICO",
      "latitude": -3.475038,
      "longitude": -76.433174,
      "ubigeo": 160706
    },
    {
      "name": "62132",
      "address": "RIO APAGA",
      "latitude": -4.849655,
      "longitude": -77.483816,
      "ubigeo": 160703
    },
    {
      "name": "62501",
      "address": "CALLE RAMON CASTILLA",
      "latitude": -4.83877,
      "longitude": -76.5505,
      "ubigeo": 160701
    },
    {
      "name": "62313",
      "address": "QDA SILLAY",
      "latitude": -5.24619,
      "longitude": -76.78499,
      "ubigeo": 160702
    },
    {
      "name": "62315",
      "address": "RIO APAGA",
      "latitude": -4.77138,
      "longitude": -77.5726,
      "ubigeo": 160703
    },
    {
      "name": "62808 RICARDO PALMA",
      "address": "RIO MORONA",
      "latitude": -4.72969,
      "longitude": -77.062024,
      "ubigeo": 160704
    },
    {
      "name": "62807 CESAR VALLEJO",
      "address": "JIRON PUERTO INDUSTRIAL",
      "latitude": -4.9208,
      "longitude": -76.3985,
      "ubigeo": 160705
    },
    {
      "name": "62305 SANTA ROSA",
      "address": "RIO YURAPAGA",
      "latitude": -4.627388,
      "longitude": -77.563192,
      "ubigeo": 160703
    },
    {
      "name": "62845 SEÑOR DE LOS MILAGROS",
      "address": "LAS FLORES",
      "latitude": -4.8321,
      "longitude": -76.5472,
      "ubigeo": 160701
    },
    {
      "name": "62200",
      "address": "RIO MARAÑON",
      "latitude": -4.824916,
      "longitude": -76.569427,
      "ubigeo": 160701
    },
    {
      "name": "PUERTO ELISA",
      "address": "RIO MARAÑÓN",
      "latitude": -4.629418,
      "longitude": -77.345929,
      "ubigeo": 160703
    },
    {
      "name": "60037",
      "address": "RIO AMAZONAS",
      "latitude": -3.769544,
      "longitude": -73.152523,
      "ubigeo": 160112
    },
    {
      "name": "KUNPANAMA",
      "address": "RIO SILLAY",
      "latitude": -5.44492,
      "longitude": -76.81346,
      "ubigeo": 160702
    },
    {
      "name": "ROGELIO NANANTAI SHIJAM",
      "address": "RIO YURAPAGA",
      "latitude": -4.77112,
      "longitude": -77.57304,
      "ubigeo": 160703
    },
    {
      "name": "62501",
      "address": "CALLE RAMON CASTILLA",
      "latitude": -4.83877,
      "longitude": -76.5505,
      "ubigeo": 160701
    },
    {
      "name": "62311",
      "address": "QUEBRADA SICUANGA",
      "latitude": -3.653813,
      "longitude": -77.318722,
      "ubigeo": 160704
    },
    {
      "name": "NAPOLEON MASURASHI SUNDI",
      "address": "PUERTO PIJUAYAL S\/N",
      "latitude": -3.91931,
      "longitude": -76.732576,
      "ubigeo": 160706
    },
    {
      "name": "DAVID SUNDI AKUMBARI",
      "address": "RIO PASTAZA",
      "latitude": -4.4507,
      "longitude": -76.6578,
      "ubigeo": 160705
    },
    {
      "name": "62107",
      "address": "RIO MORONA",
      "latitude": -4.72895,
      "longitude": -77.063603,
      "ubigeo": 160704
    },
    {
      "name": "60046",
      "address": "RIO AMAZONAS S\/N",
      "latitude": -4.230239,
      "longitude": -73.373068,
      "ubigeo": 160103
    },
    {
      "name": "60047",
      "address": "RIO AMAZONAS",
      "latitude": -4.19501,
      "longitude": -73.307909,
      "ubigeo": 160103
    },
    {
      "name": "62171",
      "address": "RIO HUASAGA",
      "latitude": -3.333941,
      "longitude": -76.571198,
      "ubigeo": 160706
    },
    {
      "name": "62261 ATAHUALPA",
      "address": "RIO APAGA",
      "latitude": -4.84692,
      "longitude": -77.4848,
      "ubigeo": 160703
    },
    {
      "name": "BORJA",
      "address": "RIO MARAÑON",
      "latitude": -4.469175,
      "longitude": -77.548599,
      "ubigeo": 160703
    },
    {
      "name": "PORVENIR",
      "address": "RIO POTRO",
      "latitude": -5.10536,
      "longitude": -77.23412,
      "ubigeo": 160701
    },
    {
      "name": "62519",
      "address": "SAN JUAN SARAMIRIZA S\/N",
      "latitude": -4.56109,
      "longitude": -77.415962,
      "ubigeo": 160703
    },
    {
      "name": "TORIBIO SHUTKA KAZU",
      "address": "QUEBRADA SICUANGA",
      "latitude": -3.65466,
      "longitude": -77.317225,
      "ubigeo": 160704
    },
    {
      "name": "62100",
      "address": "RIO MARAÑON S\/N",
      "latitude": -4.819198,
      "longitude": -76.76845,
      "ubigeo": 160701
    },
    {
      "name": "WANIP",
      "address": "QUEBRADA CANGASA",
      "latitude": -4.394197,
      "longitude": -77.482354,
      "ubigeo": 160703
    },
    {
      "name": "ANDOAS VIEJO",
      "address": "RIO PASTAZA",
      "latitude": -2.906379,
      "longitude": -76.399324,
      "ubigeo": 160706
    },
    {
      "name": "62188",
      "address": "CARRETERA CAR SARA\/BAGUA KM 13",
      "latitude": -4.637333,
      "longitude": -77.50673,
      "ubigeo": 160703
    },
    {
      "name": "62303",
      "address": "QDA CANGAZA",
      "latitude": -4.394991,
      "longitude": -77.48087,
      "ubigeo": 160703
    },
    {
      "name": "62164",
      "address": "QUEBRADA SILLAY",
      "latitude": -5.278605,
      "longitude": -76.780854,
      "ubigeo": 160702
    },
    {
      "name": "62100",
      "address": "RIO MARAÑON S\/N",
      "latitude": -4.819198,
      "longitude": -76.76845,
      "ubigeo": 160701
    },
    {
      "name": "62108",
      "address": "RIO MARAÑON",
      "latitude": -4.719618,
      "longitude": -77.249031,
      "ubigeo": 160703
    },
    {
      "name": "62323 IWAQUI KAMARAMPI MASHINGASHI",
      "address": "QUEBRADA CHAPURI",
      "latitude": -4.252345,
      "longitude": -76.930438,
      "ubigeo": 160705
    },
    {
      "name": "62031",
      "address": "RIO MARAÑON",
      "latitude": -4.826162,
      "longitude": -76.689408,
      "ubigeo": 160701
    },
    {
      "name": "62292",
      "address": "QDA MANCHARI",
      "latitude": -3.6307,
      "longitude": -76.6484,
      "ubigeo": 160706
    },
    {
      "name": "CIRO ALEGRIA BAZAN",
      "address": "JIRON 160701 S\/N",
      "latitude": -4.825985,
      "longitude": -76.6877,
      "ubigeo": 160701
    },
    {
      "name": "CEVA DATSA AUTAI",
      "address": "RIO MORONA",
      "latitude": -3.052844,
      "longitude": -77.643172,
      "ubigeo": 160704
    },
    {
      "name": "CEVA JUYUKAN",
      "address": "PANINTZA",
      "latitude": -3.054203,
      "longitude": -77.452492,
      "ubigeo": 160704
    },
    {
      "name": "INKA PACHACUTEC",
      "address": "LOBOYACU",
      "latitude": -3.668047,
      "longitude": -76.35535,
      "ubigeo": 160706
    },
    {
      "name": "NUNKUI",
      "address": "QDA. ANAZO S\/N",
      "latitude": -3.0681,
      "longitude": -77.3426,
      "ubigeo": 160704
    },
    {
      "name": "ALIANZA CRISTIANA",
      "address": "LAGO ANATICO",
      "latitude": -3.475113,
      "longitude": -76.433375,
      "ubigeo": 160706
    },
    {
      "name": "NATSA NUIMIATI JEA JUYUKAM SHAWA",
      "address": "LAGO SIWIN",
      "latitude": -3.209521,
      "longitude": -76.462398,
      "ubigeo": 160706
    },
    {
      "name": "TSEKUNTSA",
      "address": "RIO HUAZAGA",
      "latitude": -3.04354,
      "longitude": -76.76474,
      "ubigeo": 160706
    },
    {
      "name": "TAISH",
      "address": "PARQUE RIO HUAZAGA",
      "latitude": -3.48403,
      "longitude": -76.5041,
      "ubigeo": 160706
    },
    {
      "name": "LORENZO",
      "address": "QUEBRADA CAPAHUARI",
      "latitude": -2.872908,
      "longitude": -76.391652,
      "ubigeo": 160706
    },
    {
      "name": "WAYUS",
      "address": "RIO HUAZAGA",
      "latitude": -3.35877,
      "longitude": -76.55903,
      "ubigeo": 160706
    },
    {
      "name": "MUKUIN",
      "address": "QUEBRADA HUAGRAMONA",
      "latitude": -3.08112,
      "longitude": -76.43785,
      "ubigeo": 160706
    },
    {
      "name": "KAYSAR",
      "address": "QUEBRADA SITUCHE",
      "latitude": -2.92415,
      "longitude": -77.25958,
      "ubigeo": 160704
    },
    {
      "name": "62378",
      "address": "RIO PASTAZA",
      "latitude": -2.817702,
      "longitude": -76.451418,
      "ubigeo": 160706
    },
    {
      "name": "62238",
      "address": "RIO HUASAGA",
      "latitude": -2.872793,
      "longitude": -76.835597,
      "ubigeo": 160706
    },
    {
      "name": "62142",
      "address": "RIO MORONA",
      "latitude": -3.365994,
      "longitude": -77.564904,
      "ubigeo": 160704
    },
    {
      "name": "62417",
      "address": "RIO PASTAZA",
      "latitude": -3.4073,
      "longitude": -76.33526,
      "ubigeo": 160706
    },
    {
      "name": "62139",
      "address": "RIO HUASAGA",
      "latitude": -3.609424,
      "longitude": -76.424345,
      "ubigeo": 160706
    },
    {
      "name": "62240",
      "address": "RIO PASTAZA",
      "latitude": -3.757076,
      "longitude": -76.433754,
      "ubigeo": 160706
    },
    {
      "name": "62167",
      "address": "QUEBRADA YANAYACU",
      "latitude": -4.554821,
      "longitude": -77.473863,
      "ubigeo": 160703
    },
    {
      "name": "62203",
      "address": "QUEBRADA CHAPURI",
      "latitude": -4.326076,
      "longitude": -76.911311,
      "ubigeo": 160705
    },
    {
      "name": "62161",
      "address": "RIO MARAÑON",
      "latitude": -4.4414,
      "longitude": -77.51074,
      "ubigeo": 160703
    },
    {
      "name": "62510",
      "address": "RIO PASTAZA",
      "latitude": -4.360786,
      "longitude": -76.820944,
      "ubigeo": 160705
    },
    {
      "name": "SAN MARTIN",
      "address": "QUEBRADA SILLAY",
      "latitude": -5.35098,
      "longitude": -76.78525,
      "ubigeo": 160702
    },
    {
      "name": "62463 SAN JUAN",
      "address": "RIO MARAÑON",
      "latitude": -4.721463,
      "longitude": -77.247753,
      "ubigeo": 160703
    },
    {
      "name": "PALMICHE",
      "address": "QDA SILLAY",
      "latitude": -5.24264,
      "longitude": -76.78367,
      "ubigeo": 160702
    },
    {
      "name": "62267 CENTRO AMERICA",
      "address": "QUEBRADA SHIHUARAY",
      "latitude": -5.33623,
      "longitude": -76.70017,
      "ubigeo": 160702
    },
    {
      "name": "62360",
      "address": "RIO SILLAY",
      "latitude": -5.14946,
      "longitude": -76.75931,
      "ubigeo": 160702
    },
    {
      "name": "62370",
      "address": "QDA SILLAY",
      "latitude": -5.3999,
      "longitude": -76.82826,
      "ubigeo": 160702
    },
    {
      "name": "62165",
      "address": "QDA SILLAY",
      "latitude": -5.221297,
      "longitude": -76.775495,
      "ubigeo": 160702
    },
    {
      "name": "62323 IWAQUI KAMARAMPI MASHINGASHI",
      "address": "QUEBRADA CHAPURI",
      "latitude": -4.252345,
      "longitude": -76.930438,
      "ubigeo": 160705
    },
    {
      "name": "62327",
      "address": "RIO MORONA",
      "latitude": -3.053377,
      "longitude": -77.644639,
      "ubigeo": 160704
    },
    {
      "name": "62188",
      "address": "CARRETERA CAR SARA\/BAGUA KM 13",
      "latitude": -4.637333,
      "longitude": -77.50673,
      "ubigeo": 160703
    },
    {
      "name": "62242",
      "address": "QDA SITULLI",
      "latitude": -2.924023,
      "longitude": -77.259942,
      "ubigeo": 160704
    },
    {
      "name": "62163",
      "address": "LAGO SIWIN",
      "latitude": -3.206949,
      "longitude": -76.462347,
      "ubigeo": 160706
    },
    {
      "name": "62217",
      "address": "QUEBRADA MANCHARI",
      "latitude": -3.809705,
      "longitude": -76.518208,
      "ubigeo": 160706
    },
    {
      "name": "62156",
      "address": "QUEBRADA HUAGRAMONA",
      "latitude": -3.080225,
      "longitude": -76.434385,
      "ubigeo": 160706
    },
    {
      "name": "CESAR GONGORA PEREA",
      "address": "RIO MARAÑON",
      "latitude": -5.00136,
      "longitude": -75.871952,
      "ubigeo": 160705
    },
    {
      "name": "NARANJAL",
      "address": "MARAÑÓN",
      "latitude": -5.02743,
      "longitude": -75.76211,
      "ubigeo": 160705
    },
    {
      "name": "62318",
      "address": "QUEBRADA SILLAY",
      "latitude": -5.3507,
      "longitude": -76.78558,
      "ubigeo": 160702
    },
    {
      "name": "62215",
      "address": "QUEBRADA CHUINDA",
      "latitude": -4.211739,
      "longitude": -76.752115,
      "ubigeo": 160705
    },
    {
      "name": "62307",
      "address": "QUEBRADA AYCHIYACU",
      "latitude": -4.991318,
      "longitude": -77.430139,
      "ubigeo": 160701
    },
    {
      "name": "62145",
      "address": "RIO POTRO",
      "latitude": -5.106678,
      "longitude": -77.230671,
      "ubigeo": 160701
    },
    {
      "name": "62215",
      "address": "QUEBRADA CHUINDA",
      "latitude": -4.211739,
      "longitude": -76.752115,
      "ubigeo": 160705
    },
    {
      "name": "SHINIKI KASIMORO YATARISA",
      "address": "QUEBRADA PUSHAGA",
      "latitude": -3.939731,
      "longitude": -77.188054,
      "ubigeo": 160704
    },
    {
      "name": "62294",
      "address": "QDA MANCHARI",
      "latitude": -3.44467,
      "longitude": -76.77137,
      "ubigeo": 160706
    },
    {
      "name": "GREHUAMA",
      "address": "RIO MORONA",
      "latitude": -3.844405,
      "longitude": -77.289375,
      "ubigeo": 160704
    },
    {
      "name": "62186",
      "address": "QUEBRADA HUITOYACU",
      "latitude": -3.201671,
      "longitude": -77.06558,
      "ubigeo": 160706
    },
    {
      "name": "CESAR GONGORA PEREA",
      "address": "RIO MARAÑON",
      "latitude": -5.00136,
      "longitude": -75.871952,
      "ubigeo": 160705
    },
    {
      "name": "62092",
      "address": "ALTO PASTAZA",
      "latitude": -2.904664,
      "longitude": -76.401496,
      "ubigeo": 160706
    },
    {
      "name": "62321",
      "address": "RIO HUASAGA",
      "latitude": -3.35906,
      "longitude": -76.55899,
      "ubigeo": 160706
    },
    {
      "name": "62168",
      "address": "QUEBRADA MAYURIAGA",
      "latitude": -4.2014,
      "longitude": -77.30624,
      "ubigeo": 160704
    },
    {
      "name": "62157",
      "address": "QDA SITULLI",
      "latitude": -3.053617,
      "longitude": -77.452362,
      "ubigeo": 160704
    },
    {
      "name": "62380",
      "address": "RIO PASTAZA",
      "latitude": -3.15953,
      "longitude": -76.43336,
      "ubigeo": 160706
    },
    {
      "name": "62407",
      "address": "QUEBRADA HUITOYACU",
      "latitude": -3.459754,
      "longitude": -76.914603,
      "ubigeo": 160706
    },
    {
      "name": "62301",
      "address": "QUEBRADA PURANCHIM",
      "latitude": -2.97532,
      "longitude": -77.036124,
      "ubigeo": 160706
    },
    {
      "name": "62362",
      "address": "RIO HUITOYACU",
      "latitude": -2.875069,
      "longitude": -77.071058,
      "ubigeo": 160706
    },